_id,name,slug,open_hours,_id_city,slug_city,_id_category,name_category,slug_category,coordinates,longitude,latitude,average_rating,rating_count,rating_specifics,spending_time,open_time,close_time
614edd75bb9968a8d3525972,حمام تاریخی وکیل,hammam-tarikhi-shiraz,"[0, 0]",6140a4bd2dc2260e43ffa307,shiraz-city,612b815e2d28e7b40b49ae8f,جاذبه‌های گردشگری,urban_attractions,"[29.6147702, 52.5452266]",29.6147702,52.5452266,4.8,20,"{'1': 0, '2': 0, '3': 1, '4': 2, '5': 17}",120,0,0
614edf99a5e04db3e9ed4f09,هتل کاوه ,kaveh-hotel-isfahan,"[0, 0]",6140a4235c49bb986631011b,isfahan-city,612b815e2d28e7b40b49aeb8,هتل,Hotel,"[32.7014818, 51.6757002]",32.7014818,51.6757002,3.5,6,"{'1': 0, '2': 0, '3': 3, '4': 3, '5': 0}",180,0,0
614eef84837b47a5692b18d7,باغ ارم,eram-garden-shiraz,"[480, 1230]",6140a4bd2dc2260e43ffa307,shiraz-city,612b815e2d28e7b40b49ae8f,جاذبه‌های گردشگری,urban_attractions,"[29.6360623, 52.5251428]",29.6360623,52.5251428,4.925925925925926,27,"{'1': 0, '2': 0, '3': 0, '4': 2, '5': 25}",120,480,1230
614efff9a5e04db3e9ed4f0b,خانه تاریخی منطقی نژاد,manteghinejad-historical-mansion,"[0, 0]",6140a4bd2dc2260e43ffa307,shiraz-city,612b815e2d28e7b40b49ae8f,جاذبه‌های گردشگری,urban_attractions,"[29.610914, 52.5408433]",29.610914,52.5408433,4.454545454545454,11,"{'1': 0, '2': 0, '3': 1, '4': 4, '5': 6}",120,0,0
614f110b837b47a5692b18d9,موزه تاریخ طبیعی و تکنولوژی دانشگاه شیراز,natural-history-technology-museum,"[480, 840]",6140a4bd2dc2260e43ffa307,shiraz-city,612b815e2d28e7b40b49ae8f,جاذبه‌های گردشگری,urban_attractions,"[29.5925335, 52.5721767]",29.5925335,52.5721767,4.454545454545454,11,"{'1': 0, '2': 1, '3': 1, '4': 1, '5': 8}",120,480,840
614f2174bb9968a8d3525974,موزه نظامی باغ عفیف آباد,afif-abad-garden-military-museum,"[540, 1080]",6140a4bd2dc2260e43ffa307,shiraz-city,612b815e2d28e7b40b49ae8f,جاذبه‌های گردشگری,urban_attractions,"[29.6231997, 52.4983724]",29.6231997,52.4983724,4.5,12,"{'1': 0, '2': 1, '3': 0, '4': 3, '5': 8}",120,540,1080
614f2846a5e04db3e9ed4f0e,تخت جمشید (پرسپولیس),persepolis-of-shiraz,"[480, 1050]",6140a4bd2dc2260e43ffa307,shiraz-city,612b815e2d28e7b40b49ae8f,جاذبه‌های گردشگری,urban_attractions,"[29.9355247, 52.89211299999999]",29.9355247,52.89211299999999,4.8933333333333335,75,"{'1': 0, '2': 0, '3': 1, '4': 6, '5': 68}",120,480,1050
6151f146837b47a5692b18db,مسجد نصیر الملک,nasir-al-mulk-mosque-shiraz,"[420, 1020]",6140a4bd2dc2260e43ffa307,shiraz-city,612b815e2d28e7b40b49ae8f,جاذبه‌های گردشگری,urban_attractions,"[29.6085479, 52.5486555]",29.6085479,52.5486555,4.769230769230769,52,"{'1': 0, '2': 0, '3': 3, '4': 6, '5': 43}",120,420,1020
61520714837b47a5692b18dd,نقش رستم,naqsh-e-rostam-shiraz,"[480, 1110]",6140a4bd2dc2260e43ffa307,shiraz-city,612b815e2d28e7b40b49ae8f,جاذبه‌های گردشگری,urban_attractions,"[29.9885429, 52.8747317]",29.9885429,52.8747317,5.0,14,"{'1': 0, '2': 0, '3': 0, '4': 0, '5': 14}",120,480,1110
615208daa5e04db3e9ed4f14,سرای مشیر,saraye-moshir-shiraz,"[540, 1260]",6140a4bd2dc2260e43ffa307,shiraz-city,612b815e2d28e7b40b49ae8f,جاذبه‌های گردشگری,urban_attractions,"[29.6133452, 52.5455978]",29.6133452,52.5455978,4.846153846153846,13,"{'1': 0, '2': 0, '3': 0, '4': 2, '5': 11}",120,540,1260
6152bc10a5e04db3e9ed4f15,ارگ کریم خان زند,arg-karimkhan-zand-of-shiraz,"[540, 1260]",6140a4bd2dc2260e43ffa307,shiraz-city,612b815e2d28e7b40b49ae8f,جاذبه‌های گردشگری,urban_attractions,"[29.6174826, 52.5449802]",29.6174826,52.5449802,4.584905660377358,53,"{'1': 2, '2': 0, '3': 1, '4': 12, '5': 38}",120,540,1260
6152c0a6a5e04db3e9ed4f16,باغ جهان نما,jahan-nama-garden-of-shiraz,"[510, 1230]",6140a4bd2dc2260e43ffa307,shiraz-city,612b815e2d28e7b40b49ae8f,جاذبه‌های گردشگری,urban_attractions,"[29.6290154, 52.5573828]",29.6290154,52.5573828,4.6875,16,"{'1': 1, '2': 0, '3': 0, '4': 1, '5': 14}",120,510,1230
6152c78ebb9968a8d352597f,حافظیه,tomb-of-hafez-shiraz,"[480, 1260]",6140a4bd2dc2260e43ffa307,shiraz-city,612b815e2d28e7b40b49ae8f,جاذبه‌های گردشگری,urban_attractions,"[29.6258231, 52.5578876]",29.6258231,52.5578876,4.9423076923076925,52,"{'1': 0, '2': 0, '3': 0, '4': 3, '5': 49}",120,480,1260
6152de5fbb9968a8d3525980,بازار وکیل,vakil-bazaar-of-shiraz,"[480, 1260]",6140a4bd2dc2260e43ffa307,shiraz-city,612b815e2d28e7b40b49ae8f,جاذبه‌های گردشگری,urban_attractions,"[29.6140106, 52.5462429]",29.6140106,52.5462429,4.923076923076923,26,"{'1': 0, '2': 0, '3': 0, '4': 2, '5': 24}",120,480,1260
6152e0d3837b47a5692b18e4,باغ نارنجستان قوام,narenjestan-qavam-garden-of-shiraz,"[480, 1260]",6140a4bd2dc2260e43ffa307,shiraz-city,612b815e2d28e7b40b49ae8f,جاذبه‌های گردشگری,urban_attractions,"[29.6080804, 52.5528616]",29.6080804,52.5528616,5.0,22,"{'1': 0, '2': 0, '3': 0, '4': 0, '5': 22}",120,480,1260
6152e879837b47a5692b18e5,باغ عفیف آباد,afif-abad-garden-shiraz,"[480, 1140]",6140a4bd2dc2260e43ffa307,shiraz-city,612b815e2d28e7b40b49ae8f,جاذبه‌های گردشگری,urban_attractions,"[29.6278212, 52.5067912]",29.6278212,52.5067912,4.8108108108108105,37,"{'1': 0, '2': 0, '3': 3, '4': 1, '5': 33}",120,480,1140
6153035dbb9968a8d3525981,دریاچه بختگان,bakhtegan-lake-shiraz,"[0, 0]",6140a4bd2dc2260e43ffa307,shiraz-city,612b815e2d28e7b40b49ae90,جاذبه‌ی طبیعی,natural_attractions,"[29.3455487, 53.8770533]",29.3455487,53.8770533,3.8333333333333335,6,"{'1': 0, '2': 1, '3': 2, '4': 0, '5': 3}",120,0,0
61530448837b47a5692b18e6,کوه شاه قلات,kuh-e-shah-qalat-shiraz,"[0, 0]",6140a4bd2dc2260e43ffa307,shiraz-city,612b815e2d28e7b40b49ae90,جاذبه‌ی طبیعی,natural_attractions,"[29.8315646, 52.3247963]",29.8315646,52.3247963,4.75,8,"{'1': 0, '2': 0, '3': 0, '4': 2, '5': 6}",120,0,0
61530696837b47a5692b18e7,دریاچه مهارلو,maharlu-lake-of-shiraz,"[0, 0]",6140a4bd2dc2260e43ffa307,shiraz-city,612b815e2d28e7b40b49ae90,جاذبه‌ی طبیعی,natural_attractions,"[29.4678267, 52.7700743]",29.4678267,52.7700743,4.685714285714286,35,"{'1': 0, '2': 0, '3': 3, '4': 5, '5': 27}",120,0,0
6153131cbb9968a8d3525988,هتل اطلس,atlas-hotel-isfahan,"[0, 0]",6140a4235c49bb986631011b,isfahan-city,612b815e2d28e7b40b49aeb8,هتل,Hotel,"[32.8614776, 51.5671611]",32.8614776,51.5671611,4.444444444444445,9,"{'1': 0, '2': 0, '3': 0, '4': 5, '5': 4}",180,0,0
61531408837b47a5692b18ec,هتل طوطیا,totia-hotel,"[0, 0]",6140a4235c49bb986631011b,isfahan-city,612b815e2d28e7b40b49aeb8,هتل,Hotel,"[32.665361, 51.6675]",32.665361,51.6675,3.0,3,"{'1': 0, '2': 0, '3': 3, '4': 0, '5': 0}",180,0,0
6153187f837b47a5692b18ed,هتل سعدی,saadi-hotel-in-isfahan,"[0, 0]",6140a4235c49bb986631011b,isfahan-city,612b815e2d28e7b40b49aeb8,هتل,Hotel,"[32.6486611, 51.6667908]",32.6486611,51.6667908,4.0,3,"{'1': 0, '2': 0, '3': 1, '4': 1, '5': 1}",180,0,0
615319a7837b47a5692b18ee,هتل نگین جی,negin-jey-hotel-isfahan,"[0, 0]",6140a4235c49bb986631011b,isfahan-city,612b815e2d28e7b40b49aeb8,هتل,Hotel,"[32.6572269, 51.7393699]",32.6572269,51.7393699,4.0,5,"{'1': 0, '2': 0, '3': 1, '4': 3, '5': 1}",180,0,0
61531a77a5e04db3e9ed4f20,هتل کارون,karoon-hotel-isfahan,"[0, 0]",6140a4235c49bb986631011b,isfahan-city,612b815e2d28e7b40b49aeb8,هتل,Hotel,"[32.6402251, 51.6531128]",32.6402251,51.6531128,3.6,5,"{'1': 0, '2': 0, '3': 3, '4': 1, '5': 1}",180,0,0
61531b88bb9968a8d3525989,خانه مسافر مینوسا,minoosa-guest-house-isfahan,"[0, 0]",6140a4235c49bb986631011b,isfahan-city,612b815e2d28e7b40b49aeb8,هتل,Hotel,"[32.6440537, 51.6755728]",32.6440537,51.6755728,4.333333333333333,3,"{'1': 0, '2': 0, '3': 0, '4': 2, '5': 1}",180,0,0
61531c5c837b47a5692b18ef,هتل سپاهان,sepahan-hotel-isfahan,"[0, 0]",6140a4235c49bb986631011b,isfahan-city,612b815e2d28e7b40b49aeb8,هتل,Hotel,"[32.6516102, 51.6837899]",32.6516102,51.6837899,3.7777777777777777,9,"{'1': 1, '2': 1, '3': 1, '4': 2, '5': 4}",180,0,0
61531d0d837b47a5692b18f0,هتل آپارتمان شروین,shervin-apartment-hotel-isfahan,"[0, 0]",6140a4235c49bb986631011b,isfahan-city,612b815e2d28e7b40b49aeb8,هتل,Hotel,"[32.6591506, 51.6826625]",32.6591506,51.6826625,2.6666666666666665,3,"{'1': 1, '2': 0, '3': 1, '4': 1, '5': 0}",180,0,0
61531dc5837b47a5692b18f1,هتل ایران,iran-hotel-isfahan,"[0, 0]",6140a4235c49bb986631011b,isfahan-city,612b815e2d28e7b40b49aeb8,هتل,Hotel,"[32.6550288, 51.6687021]",32.6550288,51.6687021,4.5,4,"{'1': 0, '2': 0, '3': 0, '4': 2, '5': 2}",180,0,0
61531e5ebb9968a8d352598a,هتل ماهان,mahan-hotel-in-isfahan,"[0, 0]",6140a4235c49bb986631011b,isfahan-city,612b815e2d28e7b40b49aeb8,هتل,Hotel,"[32.6461016, 51.701738]",32.6461016,51.701738,2.0,8,"{'1': 5, '2': 0, '3': 1, '4': 2, '5': 0}",180,0,0
61531f2dbb9968a8d352598b,هتل آفتاب,aftab-hotel-in-isfahan,"[0, 0]",6140a4235c49bb986631011b,isfahan-city,612b815e2d28e7b40b49aeb8,هتل,Hotel,"[32.7138778, 51.7264594]",32.7138778,51.7264594,3.3333333333333335,3,"{'1': 1, '2': 0, '3': 0, '4': 1, '5': 1}",180,0,0
61531ffe837b47a5692b18f2,هتل دانشمند,daneshmand-hotel-isfahan,"[0, 0]",6140a4235c49bb986631011b,isfahan-city,612b815e2d28e7b40b49aeb8,هتل,Hotel,"[32.6764378, 51.6715629]",32.6764378,51.6715629,3.6666666666666665,15,"{'1': 2, '2': 2, '3': 2, '4': 2, '5': 7}",180,0,0
615322c6a5e04db3e9ed4f21,هتل سنتی عتیق,atigh-traditional-hotel,"[0, 0]",6140a4235c49bb986631011b,isfahan-city,612b815e2d28e7b40b49aeb8,هتل,Hotel,"[32.6672101, 51.6869963]",32.6672101,51.6869963,3.909090909090909,22,"{'1': 3, '2': 2, '3': 1, '4': 4, '5': 12}",180,0,0
6154071d837b47a5692b18f3,دشت ارژن,dasht-arjan-shiraz,"[0, 0]",6140a4bd2dc2260e43ffa307,shiraz-city,612b815e2d28e7b40b49ae90,جاذبه‌ی طبیعی,natural_attractions,"[29.660702, 51.9809103]",29.660702,51.9809103,4.352941176470588,17,"{'1': 1, '2': 0, '3': 1, '4': 5, '5': 10}",120,0,0
61540b29bb9968a8d352598c,دریاچه طشک,tashk-lake-neyriz,"[0, 0]",6140a4bd2dc2260e43ffa307,shiraz-city,612b815e2d28e7b40b49ae90,جاذبه‌ی طبیعی,natural_attractions,"[29.7022406, 53.5708573]",29.7022406,53.5708573,4.111111111111111,9,"{'1': 0, '2': 0, '3': 3, '4': 2, '5': 4}",120,0,0
61540d35bb9968a8d352598d,پارک کوهستانی دراک,derak-highland-park-shiraz,"[480, 1380]",6140a4bd2dc2260e43ffa307,shiraz-city,612b815e2d28e7b40b49ae90,جاذبه‌ی طبیعی,natural_attractions,"[29.7011365, 52.4185205]",29.7011365,52.4185205,4.25,8,"{'1': 1, '2': 0, '3': 0, '4': 2, '5': 5}",120,480,1380
61541f00bb9968a8d352598e,آبشار مارگون,margoon-waterfall-fars,"[0, 0]",6140a4bd2dc2260e43ffa307,shiraz-city,612b815e2d28e7b40b49ae90,جاذبه‌ی طبیعی,natural_attractions,"[30.4906578, 51.8945241]",30.4906578,51.8945241,4.888888888888889,18,"{'1': 0, '2': 0, '3': 0, '4': 2, '5': 16}",120,0,0
615421b5a5e04db3e9ed4f22,دریاچه کافتر,kaftar-lake-eghlid,"[0, 0]",6140a4bd2dc2260e43ffa307,shiraz-city,612b815e2d28e7b40b49ae90,جاذبه‌ی طبیعی,natural_attractions,"[30.5464402, 52.742861]",30.5464402,52.742861,4.125,8,"{'1': 0, '2': 0, '3': 2, '4': 3, '5': 3}",120,0,0
6154229bbb9968a8d352598f,پاساژ تمدن,tamadon-shopping-center-in-rasht,"[600, 1320]",61409a04f24eeee04882db8c,rasht-city,612b815e2d28e7b40b49aeb4,بازار و خرید,shopping,"[37.2760853, 49.5793176]",37.2760853,49.5793176,3.5,6,"{'1': 0, '2': 1, '3': 3, '4': 0, '5': 2}",180,600,1320
61545ccda5e04db3e9ed4f23,خانه سلطان القرایی,soltan-gharaei-house-tabriz,"[0, 0]",6140a4862dc2260e43ffa306,tabriz-city,612b815e2d28e7b40b49ae8f,جاذبه‌های گردشگری,urban_attractions,"[38.0938318, 46.2867599]",38.0938318,46.2867599,4.8,5,"{'1': 0, '2': 0, '3': 0, '4': 1, '5': 4}",120,0,0
61546a74a5e04db3e9ed4f25,هایپرمارکت هادی پور,hyper-market-hadipour-in-rasht,"[450, 1500]",61409a04f24eeee04882db8c,rasht-city,612b815e2d28e7b40b49aeb4,بازار و خرید,shopping,"[37.2631472, 49.5806583]",37.2631472,49.5806583,3.0,5,"{'1': 0, '2': 2, '3': 2, '4': 0, '5': 1}",180,450,1500
6154768ba5e04db3e9ed4f26,پاساژ ارک,ark-shopping-mall-in-tabriz,"[540, 1290]",6140a4862dc2260e43ffa306,tabriz-city,612b815e2d28e7b40b49aeb4,بازار و خرید,shopping,"[38.0734913, 46.2871491]",38.0734913,46.2871491,4.5,6,"{'1': 0, '2': 0, '3': 1, '4': 1, '5': 4}",180,540,1290
615477b2a5e04db3e9ed4f27,سینما فرهنگ شیراز,cinema-farhang-in-shiraz,"[0, 0]",6140a4bd2dc2260e43ffa307,shiraz-city,612b815e2d28e7b40b49ae8f,جاذبه‌های گردشگری,urban_attractions,"[29.6274372, 52.5573098]",29.6274372,52.5573098,4.0,5,"{'1': 0, '2': 1, '3': 0, '4': 2, '5': 2}",120,0,0
615d5e1ca5e04db3e9ed4f29,هتل آناهیتا,anahita-hotel-shiraz,"[0, 0]",6140a4bd2dc2260e43ffa307,shiraz-city,612b815e2d28e7b40b49aeb8,هتل,Hotel,"[29.6088092, 52.5591794]",29.6088092,52.5591794,3.0,4,"{'1': 0, '2': 1, '3': 2, '4': 1, '5': 0}",180,0,0
615d5ff9a5e04db3e9ed4f2a,بوتیک هتل سنتی داروش,darvash-hotel-shiraz,"[0, 0]",6140a4bd2dc2260e43ffa307,shiraz-city,612b815e2d28e7b40b49aeb8,هتل,Hotel,"[29.6109617, 52.5386659]",29.6109617,52.5386659,4.3,10,"{'1': 0, '2': 0, '3': 1, '4': 5, '5': 4}",180,0,0
615d623125ea8adc7dde568a,هتل مرآت,meraat-hotel-mashhad,"[0, 0]",6140a5085c49bb986631011c,mashhad-city,612b815e2d28e7b40b49aeb8,هتل,Hotel,"[36.277222, 59.6038968]",36.277222,59.6038968,3.9411764705882355,17,"{'1': 2, '2': 1, '3': 3, '4': 1, '5': 10}",180,0,0
615d688225ea8adc7dde568b,هتل بشری,boshra-hotel-mashhad,"[0, 0]",6140a5085c49bb986631011c,mashhad-city,612b815e2d28e7b40b49aeb8,هتل,Hotel,"[36.286243, 59.609162]",36.286243,59.609162,4.833333333333333,6,"{'1': 0, '2': 0, '3': 0, '4': 1, '5': 5}",180,0,0
615d6d58a5e04db3e9ed4f2b,هتل تهران,tehran-hotel-mashahd,"[0, 0]",6140a5085c49bb986631011c,mashhad-city,612b815e2d28e7b40b49aeb8,هتل,Hotel,"[36.280662, 59.6101405]",36.280662,59.6101405,4.55,20,"{'1': 0, '2': 1, '3': 2, '4': 2, '5': 15}",180,0,0
615d763ba5e04db3e9ed4f2c,هتل دیپلمات,diplomat-hotel-mashhad,"[0, 0]",6140a5085c49bb986631011c,mashhad-city,612b815e2d28e7b40b49aeb8,هتل,Hotel,"[36.30416, 59.620444]",36.30416,59.620444,4.541666666666667,24,"{'1': 1, '2': 0, '3': 0, '4': 7, '5': 16}",180,0,0
615d817a25ea8adc7dde568d,هتل کوثر,kowsar-hotel-mashhad,"[0, 0]",6140a5085c49bb986631011c,mashhad-city,612b815e2d28e7b40b49aeb8,هتل,Hotel,"[36.2814146, 59.6149407]",36.2814146,59.6149407,2.727272727272727,11,"{'1': 5, '2': 1, '3': 1, '4': 0, '5': 4}",180,0,0
615d85fbc81d50b6328383f3,هتل آتور,atoor-hotel-mashhad,"[0, 0]",6140a5085c49bb986631011c,mashhad-city,612b815e2d28e7b40b49aeb8,هتل,Hotel,"[36.277406, 59.6078461]",36.277406,59.6078461,4.333333333333333,3,"{'1': 0, '2': 0, '3': 1, '4': 0, '5': 2}",180,0,0
615d862dc81d50b6328383f4,هتل صدرا,sadra-hotel-shiraz,"[0, 0]",6140a4bd2dc2260e43ffa307,shiraz-city,612b815e2d28e7b40b49aeb8,هتل,Hotel,"[29.6204711, 52.5408835]",29.6204711,52.5408835,3.75,4,"{'1': 0, '2': 0, '3': 2, '4': 1, '5': 1}",180,0,0
615d876ada496e8c85f5deb0,هتل پردیسان,pardisan-hotel-mashhad,"[0, 0]",6140a5085c49bb986631011c,mashhad-city,612b815e2d28e7b40b49aeb8,هتل,Hotel,"[36.3007737, 59.5364713]",36.3007737,59.5364713,4.666666666666667,6,"{'1': 0, '2': 0, '3': 1, '4': 0, '5': 5}",180,0,0
615d88eb1e23da7b9049e3dc,هتل پاویون,pavion-hotel-mashhad,"[0, 0]",6140a5085c49bb986631011c,mashhad-city,612b815e2d28e7b40b49aeb8,هتل,Hotel,"[36.2789371, 59.6120436]",36.2789371,59.6120436,2.9,10,"{'1': 4, '2': 0, '3': 2, '4': 1, '5': 3}",180,0,0
615d89e81e23da7b9049e3dd,هتل فرید,farid-hotel-mashhad,"[0, 0]",6140a5085c49bb986631011c,mashhad-city,612b815e2d28e7b40b49aeb8,هتل,Hotel,"[36.294218, 59.578262]",36.294218,59.578262,4.5,4,"{'1': 0, '2': 0, '3': 1, '4': 0, '5': 3}",180,0,0
616086c5e6ca40e3ee675b46,رستوران ایتالیایی نیوشا اصفهان,newsha-italian-restaurant-isfahan,"[720, 1380]",6140a4235c49bb986631011b,isfahan-city,612b815e2d28e7b40b49ae84,خورد و خوراک,food,"[32.6352097, 51.6585806]",32.6352097,51.6585806,3.3333333333333335,3,"{'1': 1, '2': 0, '3': 0, '4': 1, '5': 1}",60,720,1380
61608a78e6ca40e3ee675b47,رستوران آراخوان اصفهان,arakhan-resturant-isfahan,"[0, 0]",6140a4235c49bb986631011b,isfahan-city,612b815e2d28e7b40b49ae84,خورد و خوراک,food,"[32.6412111, 51.6668759]",32.6412111,51.6668759,3.0,4,"{'1': 1, '2': 0, '3': 1, '4': 2, '5': 0}",60,0,0
61608b9dc3fbf357cfdc1e79,پیتزا تعطیلات اصفهان,pizza-tatilat-isfahan,"[0, 0]",6140a4235c49bb986631011b,isfahan-city,612b815e2d28e7b40b49ae84,خورد و خوراک,food,"[32.6331944, 51.6541583]",32.6331944,51.6541583,2.5,2,"{'1': 0, '2': 1, '3': 1, '4': 0, '5': 0}",60,0,0
61608fe6c3fbf357cfdc1e7a,هتل کاسپین,caspian-hotel-tabriz,"[0, 0]",6140a4862dc2260e43ffa306,tabriz-city,612b815e2d28e7b40b49aeb8,هتل,Hotel,"[38.0782541, 46.3079497]",38.0782541,46.3079497,3.5555555555555554,9,"{'1': 3, '2': 0, '3': 0, '4': 1, '5': 5}",180,0,0
616090ce8fb120d37ea0cf75,هتل استقبال,esteghbal-hotel-tabriz,"[0, 0]",6140a4862dc2260e43ffa306,tabriz-city,612b815e2d28e7b40b49aeb8,هتل,Hotel,"[38.0818462, 46.3034155]",38.0818462,46.3034155,4.75,12,"{'1': 0, '2': 0, '3': 0, '4': 3, '5': 9}",180,0,0
616091b58fb120d37ea0cf76,رستوران پیزریا,pizzeria-restaurant-rasht,"[0, 0]",61409a04f24eeee04882db8c,rasht-city,612b815e2d28e7b40b49ae84,خورد و خوراک,food,"[37.3066091, 49.5860242]",37.3066091,49.5860242,3.0,7,"{'1': 3, '2': 0, '3': 0, '4': 2, '5': 2}",60,0,0
616096ebe6ca40e3ee675b48,هتل رودکی,roodaki-hotel-shiraz,"[0, 0]",6140a4bd2dc2260e43ffa307,shiraz-city,612b815e2d28e7b40b49aeb8,هتل,Hotel,"[29.6209683, 52.5409699]",29.6209683,52.5409699,3.357142857142857,14,"{'1': 3, '2': 0, '3': 4, '4': 3, '5': 4}",180,0,0
61609804e6ca40e3ee675b49,هتل شیرازیس,shirazis-hotel-shiraz,"[0, 0]",6140a4bd2dc2260e43ffa307,shiraz-city,612b815e2d28e7b40b49aeb8,هتل,Hotel,"[29.6216702, 52.5415168]",29.6216702,52.5415168,4.3125,16,"{'1': 0, '2': 0, '3': 2, '4': 7, '5': 7}",180,0,0
6160994de6ca40e3ee675b4a,هتل آپارتمان جام جم,jaamejam-hotel-shiraz,"[0, 0]",6140a4bd2dc2260e43ffa307,shiraz-city,612b815e2d28e7b40b49aeb8,هتل,Hotel,"[29.6212341, 52.5399065]",29.6212341,52.5399065,4.0,4,"{'1': 0, '2': 0, '3': 2, '4': 0, '5': 2}",180,0,0
61614596c3fbf357cfdc1e7b,هتل ابریشم,abrisham-hotel-mshhad,"[0, 0]",6140a5085c49bb986631011c,mashhad-city,612b815e2d28e7b40b49aeb8,هتل,Hotel,"[36.2814983, 59.612434]",36.2814983,59.612434,4.666666666666667,3,"{'1': 0, '2': 0, '3': 0, '4': 1, '5': 2}",180,0,0
61614f22e6ca40e3ee675b4b,هتل آیران,ayran-hotel-mshhad,"[0, 0]",6140a5085c49bb986631011c,mashhad-city,612b815e2d28e7b40b49aeb8,هتل,Hotel,"[36.2782913, 59.6119594]",36.2782913,59.6119594,3.75,4,"{'1': 0, '2': 0, '3': 2, '4': 1, '5': 1}",180,0,0
616150b5e6ca40e3ee675b4c,هتل جوادیه,javadieh-hotel-mashhad,"[0, 0]",6140a5085c49bb986631011c,mashhad-city,612b815e2d28e7b40b49aeb8,هتل,Hotel,"[36.2930479, 59.6261373]",36.2930479,59.6261373,3.5,22,"{'1': 2, '2': 5, '3': 5, '4': 0, '5': 10}",180,0,0
616152048fb120d37ea0cf77,هتل آپارتمان ملل,melal-hotel-mashhad,"[0, 0]",6140a5085c49bb986631011c,mashhad-city,612b815e2d28e7b40b49aeb8,هتل,Hotel,"[36.2834599, 59.6113722]",36.2834599,59.6113722,3.6666666666666665,3,"{'1': 0, '2': 0, '3': 2, '4': 0, '5': 1}",180,0,0
61615344e6ca40e3ee675b4d,هتل ادریس مشهد,edris-hotel-mashhad,"[0, 0]",6140a5085c49bb986631011c,mashhad-city,612b815e2d28e7b40b49aeb8,هتل,Hotel,"[36.284248, 59.6130104]",36.284248,59.6130104,2.7777777777777777,9,"{'1': 3, '2': 1, '3': 2, '4': 1, '5': 2}",180,0,0
61615465c3fbf357cfdc1e7c,هتل گل گندم شباهنگ,gole-gandom-hotel-mashhad,"[0, 0]",6140a5085c49bb986631011c,mashhad-city,612b815e2d28e7b40b49aeb8,هتل,Hotel,"[36.2640096, 59.5967945]",36.2640096,59.5967945,3.6153846153846154,26,"{'1': 4, '2': 1, '3': 6, '4': 5, '5': 10}",180,0,0
61615e03c3fbf357cfdc1e7d,هتل قصر خورشید,sun-palace-hotel-apartments-mashhad,"[0, 0]",6140a5085c49bb986631011c,mashhad-city,612b815e2d28e7b40b49aeb8,هتل,Hotel,"[36.2727941, 59.6220468]",36.2727941,59.6220468,3.9285714285714284,14,"{'1': 1, '2': 0, '3': 2, '4': 7, '5': 4}",180,0,0
61615edde6ca40e3ee675b4e,هتل ساوین,savin-hotel-mashhad,"[0, 0]",6140a5085c49bb986631011c,mashhad-city,612b815e2d28e7b40b49aeb8,هتل,Hotel,"[36.2781703, 59.6103115]",36.2781703,59.6103115,3.75,4,"{'1': 0, '2': 0, '3': 2, '4': 1, '5': 1}",180,0,0
61615fb58fb120d37ea0cf78,هتل پارمیدا,parmida-hotel-mashhad,"[0, 0]",6140a5085c49bb986631011c,mashhad-city,612b815e2d28e7b40b49aeb8,هتل,Hotel,"[36.274975, 59.6063299]",36.274975,59.6063299,3.3278688524590163,61,"{'1': 15, '2': 6, '3': 4, '4': 16, '5': 20}",180,0,0
616160b58fb120d37ea0cf79,هتل مینو,minoo-hotel-mashhad,"[0, 0]",6140a5085c49bb986631011c,mashhad-city,612b815e2d28e7b40b49aeb8,هتل,Hotel,"[36.2771347, 59.6069124]",36.2771347,59.6069124,3.8,5,"{'1': 0, '2': 1, '3': 1, '4': 1, '5': 2}",180,0,0
61616257c3fbf357cfdc1e7e,هتل باختر,bakhtar-hotel-mashhad,"[0, 0]",6140a5085c49bb986631011c,mashhad-city,612b815e2d28e7b40b49aeb8,هتل,Hotel,"[36.2881276, 59.5971645]",36.2881276,59.5971645,3.75,4,"{'1': 0, '2': 0, '3': 2, '4': 1, '5': 1}",180,0,0
61629cc4318374541e0f8070,هتل پتروشیمی,petrochemical-hotel-tabriz,"[0, 0]",6140a4862dc2260e43ffa306,tabriz-city,612b815e2d28e7b40b49aeb8,هتل,Hotel,"[38.0632063, 46.339174]",38.0632063,46.339174,4.285714285714286,7,"{'1': 0, '2': 1, '3': 0, '4': 2, '5': 4}",180,0,0
6162a12e318374541e0f8071,هتل آفریقا,africa-hotel-mashhad,"[0, 0]",6140a5085c49bb986631011c,mashhad-city,612b815e2d28e7b40b49aeb8,هتل,Hotel,"[36.27354, 59.6144121]",36.27354,59.6144121,2.4285714285714284,14,"{'1': 7, '2': 2, '3': 0, '4': 2, '5': 3}",180,0,0
6162a4ef88e724743cfbe7f3,هتل فجر,fajr-hotel-mashhad,"[0, 0]",6140a5085c49bb986631011c,mashhad-city,612b815e2d28e7b40b49aeb8,هتل,Hotel,"[36.2757623, 59.6103247]",36.2757623,59.6103247,3.8333333333333335,6,"{'1': 0, '2': 1, '3': 1, '4': 2, '5': 2}",180,0,0
6162a871318374541e0f8072,هتل صدرا ,sadra-hotel-mashhad,"[0, 0]",6140a5085c49bb986631011c,mashhad-city,612b815e2d28e7b40b49aeb8,هتل,Hotel,"[36.278901, 59.609346]",36.278901,59.609346,4.0,12,"{'1': 1, '2': 1, '3': 2, '4': 1, '5': 7}",180,0,0
6162b3db318374541e0f8073,هتل تابران,tabran-hotel-mashhad,"[0, 0]",6140a5085c49bb986631011c,mashhad-city,612b815e2d28e7b40b49aeb8,هتل,Hotel,"[36.2994939, 59.6185747]",36.2994939,59.6185747,4.333333333333333,6,"{'1': 0, '2': 0, '3': 1, '4': 2, '5': 3}",180,0,0
6162b4ac318374541e0f8074,هتل تابش,tabesh-hotel-mashhad,"[0, 0]",6140a5085c49bb986631011c,mashhad-city,612b815e2d28e7b40b49aeb8,هتل,Hotel,"[36.2756394, 59.614047]",36.2756394,59.614047,1.5714285714285714,7,"{'1': 5, '2': 1, '3': 0, '4': 1, '5': 0}",180,0,0
6162b642318374541e0f8075,هتل ستاره شرق,setareh-shargh-hotel-mashhad,"[0, 0]",6140a5085c49bb986631011c,mashhad-city,612b815e2d28e7b40b49aeb8,هتل,Hotel,"[36.2758024, 59.5977824]",36.2758024,59.5977824,3.75,4,"{'1': 0, '2': 0, '3': 2, '4': 1, '5': 1}",180,0,0
6162b6dfdbdd5a47d77ff6f7,هتل آریا,aria-hotel-mashhad,"[0, 0]",6140a5085c49bb986631011c,mashhad-city,612b815e2d28e7b40b49aeb8,هتل,Hotel,"[36.2789878, 59.6085553]",36.2789878,59.6085553,3.75,4,"{'1': 0, '2': 0, '3': 2, '4': 1, '5': 1}",180,0,0
6162cc4788e724743cfbe7f4,مرکز خرید برج کاوه اصفهان,kaveh-tower-shopping-center-isfahan,"[0, 0]",6140a4235c49bb986631011b,isfahan-city,612b815e2d28e7b40b49aeb4,بازار و خرید,shopping,"[32.6962304, 51.6748689]",32.6962304,51.6748689,4.25,4,"{'1': 0, '2': 0, '3': 0, '4': 3, '5': 1}",180,0,0
6162cd2c318374541e0f8076,مرکز خرید امیریه,amirieh-shopping-center,"[0, 0]",6140a4bd2dc2260e43ffa307,shiraz-city,612b815e2d28e7b40b49aeb4,بازار و خرید,shopping,"[29.633639, 52.476889]",29.633639,52.476889,4.0,3,"{'1': 0, '2': 0, '3': 1, '4': 1, '5': 1}",180,0,0
6162cf05318374541e0f8077,هتل آپارتمان زیبا,ziba-apartment-hotel-in-tabriz,"[0, 0]",6140a4862dc2260e43ffa306,tabriz-city,612b815e2d28e7b40b49aeb8,هتل,Hotel,"[38.0716731, 46.2935062]",38.0716731,46.2935062,5.0,3,"{'1': 0, '2': 0, '3': 0, '4': 0, '5': 3}",180,0,0
6162d022318374541e0f8078,هتل آپارتمان ارس,aras-hotel-tabriz,"[0, 0]",6140a4862dc2260e43ffa306,tabriz-city,612b815e2d28e7b40b49aeb8,هتل,Hotel,"[38.0621134, 46.2903552]",38.0621134,46.2903552,4.333333333333333,3,"{'1': 0, '2': 0, '3': 0, '4': 2, '5': 1}",180,0,0
6162d0f388e724743cfbe7f5,هتل شمس,shams-apartment-hotel-shiraz,"[0, 0]",6140a4bd2dc2260e43ffa307,shiraz-city,612b815e2d28e7b40b49aeb8,هتل,Hotel,"[29.6201121, 52.5511848]",29.6201121,52.5511848,4.2,5,"{'1': 0, '2': 0, '3': 1, '4': 2, '5': 2}",180,0,0
6162d199318374541e0f8079,هتل رویال,royal-hotel-shiraz,"[0, 0]",6140a4bd2dc2260e43ffa307,shiraz-city,612b815e2d28e7b40b49aeb8,هتل,Hotel,"[29.6326667, 52.5555361]",29.6326667,52.5555361,3.8823529411764706,17,"{'1': 1, '2': 1, '3': 3, '4': 6, '5': 6}",180,0,0
6162d1f1dbdd5a47d77ff6f8,هتل نصیرالملک,nasir-almolk-hotel-shiraz,"[0, 0]",6140a4bd2dc2260e43ffa307,shiraz-city,612b815e2d28e7b40b49aeb8,هتل,Hotel,"[29.6042572, 52.5387598]",29.6042572,52.5387598,2.772727272727273,22,"{'1': 4, '2': 4, '3': 9, '4': 3, '5': 2}",180,0,0
6162d3f5318374541e0f807a,هتل صبوری,sabouri-apartment-hotel-rasht,"[0, 0]",61409a04f24eeee04882db8c,rasht-city,612b815e2d28e7b40b49aeb8,هتل,Hotel,"[37.2765798, 49.6051852]",37.2765798,49.6051852,3.625,8,"{'1': 1, '2': 0, '3': 3, '4': 1, '5': 3}",180,0,0
6163e41088e724743cfbe7f6,فودکورت مرکز خرید اطلس,atlas-food-court-tabriz,"[720, 1500]",6140a4862dc2260e43ffa306,tabriz-city,612b815e2d28e7b40b49ae84,خورد و خوراک,food,"[38.0672301, 46.3503472]",38.0672301,46.3503472,5.0,2,"{'1': 0, '2': 0, '3': 0, '4': 0, '5': 2}",60,720,1500
6163e5c9dbdd5a47d77ff6f9,مجموعه کافی‌شاپ رستوران وحید,coffee-shop-restaurant-vahid-in-tabriz,"[750, 1410]",6140a4862dc2260e43ffa306,tabriz-city,612b815e2d28e7b40b49ae84,خورد و خوراک,food,"[38.0240361, 46.4588682]",38.0240361,46.4588682,4.666666666666667,3,"{'1': 0, '2': 0, '3': 0, '4': 1, '5': 2}",60,750,1410
6163e783318374541e0f807b,کباب رسول,rasoul-kebab-shop-rasht,"[600, 1560]",61409a04f24eeee04882db8c,rasht-city,612b815e2d28e7b40b49ae84,خورد و خوراک,food,"[37.2798785, 49.5866637]",37.2798785,49.5866637,3.4,5,"{'1': 1, '2': 0, '3': 1, '4': 2, '5': 1}",60,600,1560
6163e852dbdd5a47d77ff6fa,حلیم محمود رشت,halim-mahmoud-rasht,"[360, 570]",61409a04f24eeee04882db8c,rasht-city,612b815e2d28e7b40b49ae84,خورد و خوراک,food,"[37.2746058, 49.5941463]",37.2746058,49.5941463,4.25,4,"{'1': 0, '2': 0, '3': 1, '4': 1, '5': 2}",60,360,570
6164274a0dc15559dd61a259,رستوران تک,tak-restaurant-rasht,"[690, 1350]",61409a04f24eeee04882db8c,rasht-city,612b815e2d28e7b40b49ae84,خورد و خوراک,food,"[37.2617222, 49.5937694]",37.2617222,49.5937694,3.75,4,"{'1': 0, '2': 1, '3': 0, '4': 2, '5': 1}",60,690,1350
61642be2e8ec7cdf173b9a67,آش قلمکار مرادی,moradi-food-industry-rasht,"[360, 1320]",61409a04f24eeee04882db8c,rasht-city,612b815e2d28e7b40b49ae84,خورد و خوراک,food,"[37.2728056, 49.5825472]",37.2728056,49.5825472,4.75,4,"{'1': 0, '2': 0, '3': 0, '4': 1, '5': 3}",60,360,1320
616431ad7e7ff31d183e61a0,رستوران چلوشیش,chelo-shish-restaurant-rasht,"[720, 1380]",61409a04f24eeee04882db8c,rasht-city,612b815e2d28e7b40b49ae84,خورد و خوراک,food,"[37.2591111, 49.6011028]",37.2591111,49.6011028,4.0,20,"{'1': 2, '2': 0, '3': 5, '4': 2, '5': 11}",60,720,1380
616432a8e8ec7cdf173b9a68,رستوران باکویه,bakuya-restaurant-complex-shiraz,"[720, 1500]",6140a4bd2dc2260e43ffa307,shiraz-city,612b815e2d28e7b40b49ae84,خورد و خوراک,food,"[29.6355417, 52.5563805]",29.6355417,52.5563805,3.65625,32,"{'1': 7, '2': 1, '3': 0, '4': 12, '5': 12}",60,720,1500
6164353b0dc15559dd61a25a,هتل حریرستان,harirestan-hotel-mashhad,"[0, 0]",6140a5085c49bb986631011c,mashhad-city,612b815e2d28e7b40b49aeb8,هتل,Hotel,"[36.291444, 59.624083]",36.291444,59.624083,4.166666666666667,6,"{'1': 0, '2': 0, '3': 1, '4': 3, '5': 2}",180,0,0
6165320af0ee4798280d3608,رستوران شاطر محمد,shater-mohamad-kebab-shop-shiraz,"[570, 1590]",6140a4bd2dc2260e43ffa307,shiraz-city,612b815e2d28e7b40b49ae84,خورد و خوراک,food,"[29.6322457, 52.5392262]",29.6322457,52.5392262,3.0,8,"{'1': 0, '2': 3, '3': 2, '4': 3, '5': 0}",60,570,1590
61653c1ff0ee4798280d3609,رستوران الماس,almas-restaurant-mashhad,"[0, 0]",6140a5085c49bb986631011c,mashhad-city,612b815e2d28e7b40b49ae84,خورد و خوراک,food,"[36.2820592, 59.6110694]",36.2820592,59.6110694,3.857142857142857,7,"{'1': 1, '2': 1, '3': 0, '4': 1, '5': 4}",60,0,0
61653e14e8ec7cdf173b9a69,رستوران مهستان شاندیز,mahestan-shandiz-restaurant-mashhad,"[660, 1500]",6140a5085c49bb986631011c,mashhad-city,612b815e2d28e7b40b49ae84,خورد و خوراک,food,"[36.3236483, 59.4995402]",36.3236483,59.4995402,3.75,12,"{'1': 2, '2': 0, '3': 2, '4': 3, '5': 5}",60,660,1500
61653f83f0ee4798280d360a,هتل نقش جهان,naghshe-jahan-hotel-isfahan,"[0, 0]",6140a4235c49bb986631011b,isfahan-city,612b815e2d28e7b40b49aeb8,هتل,Hotel,"[32.6590251, 51.6690242]",32.6590251,51.6690242,4.5,2,"{'1': 0, '2': 0, '3': 0, '4': 1, '5': 1}",180,0,0
616540ed7e7ff31d183e61a1,رستوران ترنج,toranj-food-complex-isfahan,"[660, 1380]",6140a4235c49bb986631011b,isfahan-city,612b815e2d28e7b40b49ae84,خورد و خوراک,food,"[32.6324697, 51.6510666]",32.6324697,51.6510666,3.7142857142857144,7,"{'1': 1, '2': 1, '3': 1, '4': 0, '5': 4}",60,660,1380
6165424f7e7ff31d183e61a2,رستوران سنتی شازده اصفهانی, esfahani-shazde-restaurant-isfahan,"[720, 1500]",6140a4235c49bb986631011b,isfahan-city,612b815e2d28e7b40b49ae84,خورد و خوراک,food,"[32.623883, 51.6806548]",32.623883,51.6806548,4.0,6,"{'1': 1, '2': 0, '3': 1, '4': 0, '5': 4}",60,720,1500
6165449b7e7ff31d183e61a3,رستوران باستانی,bastaani-restaurant-isfahan,"[600, 1380]",6140a4235c49bb986631011b,isfahan-city,612b815e2d28e7b40b49ae84,خورد و خوراک,food,"[32.6554292, 51.6787278]",32.6554292,51.6787278,1.375,8,"{'1': 5, '2': 3, '3': 0, '4': 0, '5': 0}",60,600,1380
616553f0f0ee4798280d360b,کافه شکر,sugar-cafe-mashhad,"[0, 0]",6140a5085c49bb986631011c,mashhad-city,612b815e2d28e7b40b49ae84,خورد و خوراک,food,"[36.295186, 59.5734618]",36.295186,59.5734618,5.0,2,"{'1': 0, '2': 0, '3': 0, '4': 0, '5': 2}",60,0,0
616554b97e7ff31d183e61a4,پیتزا شبدیز,shabdiz-pizza-mashhad,"[660, 1500]",6140a5085c49bb986631011c,mashhad-city,612b815e2d28e7b40b49ae84,خورد و خوراک,food,"[36.3071337, 59.5621714]",36.3071337,59.5621714,3.9,10,"{'1': 1, '2': 0, '3': 1, '4': 5, '5': 3}",60,660,1500
616555857e7ff31d183e61a5,رستوران لیالی لبنان,lobnan-nights-restaurant,"[660, 1680]",6140a5085c49bb986631011c,mashhad-city,612b815e2d28e7b40b49ae84,خورد و خوراک,food,"[36.2953188, 59.6123926]",36.2953188,59.6123926,4.037037037037037,27,"{'1': 4, '2': 0, '3': 2, '4': 6, '5': 15}",60,660,1680
6165565ef0ee4798280d360c,رستوران کلید,kelid-restaurant-mashhad,"[510, 1320]",6140a5085c49bb986631011c,mashhad-city,612b815e2d28e7b40b49ae84,خورد و خوراک,food,"[36.3197903, 59.5190553]",36.3197903,59.5190553,3.0,5,"{'1': 0, '2': 3, '3': 0, '4': 1, '5': 1}",60,510,1320
616556c3e8ec7cdf173b9a6a,رستوران شاندیز صفه,shandiz-safe-restaurant-isfahan,"[540, 1380]",6140a4235c49bb986631011b,isfahan-city,612b815e2d28e7b40b49ae84,خورد و خوراک,food,"[32.59717, 51.6489048]",32.59717,51.6489048,3.1666666666666665,6,"{'1': 2, '2': 0, '3': 0, '4': 3, '5': 1}",60,540,1380
61655726f0ee4798280d360d,رستوران کلبه,kolbeh-restaurant-mashhad,"[720, 1530]",6140a5085c49bb986631011c,mashhad-city,612b815e2d28e7b40b49ae84,خورد و خوراک,food,"[36.3153637, 59.509639]",36.3153637,59.509639,4.153846153846154,13,"{'1': 1, '2': 0, '3': 0, '4': 7, '5': 5}",60,720,1530
616557ccf0ee4798280d360e,بریانی اعظم شعبه یک,beryani-azam-isfahan,"[690, 1320]",6140a4235c49bb986631011b,isfahan-city,612b815e2d28e7b40b49ae84,خورد و خوراک,food,"[32.6657862, 51.6656217]",32.6657862,51.6656217,4.1875,32,"{'1': 3, '2': 0, '3': 4, '4': 6, '5': 19}",60,690,1320
61655c4bde4c0a3b704ff2b6,مجموعه پذیرایی سنتی میناس,minas-restaurant-isfahan,"[0, 0]",6140a4235c49bb986631011b,isfahan-city,612b815e2d28e7b40b49ae84,خورد و خوراک,food,"[32.6300975, 51.6511295]",32.6300975,51.6511295,4.6,5,"{'1': 0, '2': 0, '3': 0, '4': 2, '5': 3}",60,0,0
61655dc49ee6b16bd45305b5,رستوران زاینده رود,zayandeh-rud-restaurant-isfahan,"[480, 1500]",6140a4235c49bb986631011b,isfahan-city,612b815e2d28e7b40b49ae84,خورد و خوراک,food,"[32.6401711, 51.6506468]",32.6401711,51.6506468,3.75,4,"{'1': 1, '2': 0, '3': 0, '4': 1, '5': 2}",60,480,1500
6165690fde4c0a3b704ff2b7,کافه رستوران تراس,terrace-cafe-restaurant-mashhad,"[480, 1500]",6140a5085c49bb986631011c,mashhad-city,612b815e2d28e7b40b49ae84,خورد و خوراک,food,"[36.3214676, 59.5330309]",36.3214676,59.5330309,4.285714285714286,7,"{'1': 0, '2': 0, '3': 1, '4': 3, '5': 3}",60,480,1500
61656a249ee6b16bd45305b6,رستوران مرادی,moradi-restaurant-mashhad,"[720, 1380]",6140a5085c49bb986631011c,mashhad-city,612b815e2d28e7b40b49ae84,خورد و خوراک,food,"[36.3270718, 59.5002651]",36.3270718,59.5002651,3.25,8,"{'1': 2, '2': 1, '3': 1, '4': 1, '5': 3}",60,720,1380
61656b32de4c0a3b704ff2b8,رستوران پدیده شاندیز,padideh-shandiz-mashhad,"[0, 0]",6140a5085c49bb986631011c,mashhad-city,612b815e2d28e7b40b49ae84,خورد و خوراک,food,"[36.2898053, 59.5805333]",36.2898053,59.5805333,4.0,8,"{'1': 2, '2': 0, '3': 0, '4': 0, '5': 6}",60,0,0
61656c049ee6b16bd45305b7,هتل قدس,qods-hotel-mashhad,"[0, 0]",6140a5085c49bb986631011c,mashhad-city,612b815e2d28e7b40b49aeb8,هتل,Hotel,"[36.2853064, 59.6104731]",36.2853064,59.6104731,4.2,5,"{'1': 0, '2': 0, '3': 1, '4': 2, '5': 2}",180,0,0
61657047de4c0a3b704ff2b9,هتل دریا,darya-tabriz-tabriz,"[0, 0]",6140a4862dc2260e43ffa306,tabriz-city,612b815e2d28e7b40b49aeb8,هتل,Hotel,"[38.0723715, 46.2389573]",38.0723715,46.2389573,4.2,10,"{'1': 0, '2': 2, '3': 0, '4': 2, '5': 6}",180,0,0
616570d49ee6b16bd45305b8,هتل آپارتمان بهبود,behboud-hotel-tabriz,"[0, 0]",6140a4862dc2260e43ffa306,tabriz-city,612b815e2d28e7b40b49aeb8,هتل,Hotel,"[38.0669653, 46.2983129]",38.0669653,46.2983129,4.25,4,"{'1': 0, '2': 0, '3': 1, '4': 1, '5': 2}",180,0,0
616575f95ada32371459757a,هتل عقیق رضوی,aghigh-razavi-hotel-mashhad,"[0, 0]",6140a5085c49bb986631011c,mashhad-city,612b815e2d28e7b40b49aeb8,هتل,Hotel,"[36.292649, 59.6215898]",36.292649,59.6215898,4.666666666666667,3,"{'1': 0, '2': 0, '3': 0, '4': 1, '5': 2}",180,0,0
616576dade4c0a3b704ff2ba,هتل الینا,elina-hotel-mashhad,"[0, 0]",6140a5085c49bb986631011c,mashhad-city,612b815e2d28e7b40b49aeb8,هتل,Hotel,"[36.285185, 59.6062848]",36.285185,59.6062848,4.333333333333333,3,"{'1': 0, '2': 0, '3': 0, '4': 2, '5': 1}",180,0,0
6165777b9ee6b16bd45305b9,هتل آپارتمان آتا,ata-hotel-apartment-tabriz,"[0, 0]",6140a4862dc2260e43ffa306,tabriz-city,612b815e2d28e7b40b49aeb8,هتل,Hotel,"[38.0644924, 46.3231313]",38.0644924,46.3231313,4.5,4,"{'1': 0, '2': 0, '3': 0, '4': 2, '5': 2}",180,0,0
6165780f9ee6b16bd45305ba,هتل رویا,roya-hotel-mashhad,"[0, 0]",6140a5085c49bb986631011c,mashhad-city,612b815e2d28e7b40b49aeb8,هتل,Hotel,"[36.2718152, 59.6015526]",36.2718152,59.6015526,4.333333333333333,3,"{'1': 0, '2': 0, '3': 0, '4': 2, '5': 1}",180,0,0
6165794b5ada32371459757b,هتل هرند,harand-hotel-mashhad,"[0, 0]",6140a5085c49bb986631011c,mashhad-city,612b815e2d28e7b40b49aeb8,هتل,Hotel,"[36.2806007, 59.6141576]",36.2806007,59.6141576,2.5,10,"{'1': 4, '2': 1, '3': 2, '4': 2, '5': 1}",180,0,0
61657a2ede4c0a3b704ff2bb,هتل سحاب,sahab-hotel-mashhad,"[0, 0]",6140a5085c49bb986631011c,mashhad-city,612b815e2d28e7b40b49aeb8,هتل,Hotel,"[36.2784991, 59.6116152]",36.2784991,59.6116152,3.5,4,"{'1': 0, '2': 0, '3': 2, '4': 2, '5': 0}",180,0,0
61657ae9de4c0a3b704ff2bc,بوتیک ارسی,orosi-boutique-hotel-tabriz,"[0, 0]",6140a4862dc2260e43ffa306,tabriz-city,612b815e2d28e7b40b49aeb8,هتل,Hotel,"[38.0313961, 46.3647972]",38.0313961,46.3647972,4.6875,16,"{'1': 0, '2': 1, '3': 1, '4': 0, '5': 14}",180,0,0
61657b0f5ada32371459757c,هتل قصرالضیافه,qasr-al-ziafat-hotel,"[0, 0]",6140a5085c49bb986631011c,mashhad-city,612b815e2d28e7b40b49aeb8,هتل,Hotel,"[36.287336, 59.6197172]",36.287336,59.6197172,2.7,10,"{'1': 5, '2': 0, '3': 1, '4': 1, '5': 3}",180,0,0
61657bd65ada32371459757d,هتل ایرانیان,iranian-hotel-tabriz,"[0, 0]",6140a4862dc2260e43ffa306,tabriz-city,612b815e2d28e7b40b49aeb8,هتل,Hotel,"[38.0713171, 46.3244628]",38.0713171,46.3244628,4.75,4,"{'1': 0, '2': 0, '3': 0, '4': 1, '5': 3}",180,0,0
616587fb9ee6b16bd45305bb,هتل مروارید,morvarid-hotel-tabriz ,"[0, 0]",6140a4862dc2260e43ffa306,tabriz-city,612b815e2d28e7b40b49aeb8,هتل,Hotel,"[38.0749985, 46.2820245]",38.0749985,46.2820245,3.6,5,"{'1': 1, '2': 0, '3': 1, '4': 1, '5': 2}",180,0,0
616589135ada32371459757e,هتل آذربایجان,azarbaijan-hotel-tabriz,"[0, 0]",6140a4862dc2260e43ffa306,tabriz-city,612b815e2d28e7b40b49aeb8,هتل,Hotel,"[38.0749464, 46.2872705]",38.0749464,46.2872705,3.8,5,"{'1': 1, '2': 0, '3': 0, '4': 2, '5': 2}",180,0,0
61658a235ada32371459757f,رستوران ماهی خوب,good-fish-restaurant-tabriz,"[750, 1395]",6140a4862dc2260e43ffa306,tabriz-city,612b815e2d28e7b40b49ae84,خورد و خوراک,food,"[38.056144, 46.3721218]",38.056144,46.3721218,5.0,3,"{'1': 0, '2': 0, '3': 0, '4': 0, '5': 3}",60,750,1395
61658ba75ada323714597580,کبابی آقاجون,agha-joon-resturant-tabriz,"[780, 1500]",6140a4862dc2260e43ffa306,tabriz-city,612b815e2d28e7b40b49ae84,خورد و خوراک,food,"[38.0400873, 46.3718365]",38.0400873,46.3718365,3.6666666666666665,3,"{'1': 1, '2': 0, '3': 0, '4': 0, '5': 2}",60,780,1500
61658ca2de4c0a3b704ff2bd,رستوران دلستان,delestan-restaurant-tabriz,"[660, 1500]",6140a4862dc2260e43ffa306,tabriz-city,612b815e2d28e7b40b49ae84,خورد و خوراک,food,"[38.074324, 46.2567513]",38.074324,46.2567513,5.0,2,"{'1': 0, '2': 0, '3': 0, '4': 0, '5': 2}",60,660,1500
6165bbd7de4c0a3b704ff2be,کبابسرای ریحان,reyhan-restaurant-tabriz,"[420, 1230]",6140a4862dc2260e43ffa306,tabriz-city,612b815e2d28e7b40b49ae84,خورد و خوراک,food,"[38.057362, 46.3294398]",38.057362,46.3294398,5.0,2,"{'1': 0, '2': 0, '3': 0, '4': 0, '5': 2}",60,420,1230
6165bdacde4c0a3b704ff2bf,رستوران مهران,mehran-restaurant-tabriz,"[720, 900]",6140a4862dc2260e43ffa306,tabriz-city,612b815e2d28e7b40b49ae84,خورد و خوراک,food,"[38.0497764, 46.3641947]",38.0497764,46.3641947,3.6666666666666665,3,"{'1': 1, '2': 0, '3': 0, '4': 0, '5': 2}",60,720,900
6165bf4dde4c0a3b704ff2c0,فودکورت لاله پارک,laleh-park-restaurant-tabriz,"[600, 1350]",6140a4862dc2260e43ffa306,tabriz-city,612b815e2d28e7b40b49ae84,خورد و خوراک,food,"[38.0725009, 46.3694347]",38.0725009,46.3694347,4.75,4,"{'1': 0, '2': 0, '3': 0, '4': 1, '5': 3}",60,600,1350
6166504b5ada323714597581,رستوران اجاق,ojagh-restaurant-tabriz,"[660, 1410]",6140a4862dc2260e43ffa306,tabriz-city,612b815e2d28e7b40b49ae84,خورد و خوراک,food,"[38.066237, 46.3526248]",38.066237,46.3526248,5.0,2,"{'1': 0, '2': 0, '3': 0, '4': 0, '5': 2}",60,660,1410
616651a49ee6b16bd45305bc,رستوران مهدی هیلا,mehdi-hila-tabriz,"[660, 1410]",6140a4862dc2260e43ffa306,tabriz-city,612b815e2d28e7b40b49ae84,خورد و خوراک,food,"[38.0527196, 46.2735762]",38.0527196,46.2735762,4.0,4,"{'1': 1, '2': 0, '3': 0, '4': 0, '5': 3}",60,660,1410
616652f79ee6b16bd45305bd,کافه رستوران بارکد, barcode-cafes-and-restaurants-tabriz,"[600, 1500]",6140a4862dc2260e43ffa306,tabriz-city,612b815e2d28e7b40b49ae84,خورد و خوراک,food,"[38.057643, 46.349459]",38.057643,46.349459,4.0,4,"{'1': 1, '2': 0, '3': 0, '4': 0, '5': 3}",60,600,1500
61665442de4c0a3b704ff2c1,رستوران گراند,grand-restaurant-guilan ,"[480, 1500]",61409a04f24eeee04882db8c,rasht-city,612b815e2d28e7b40b49ae84,خورد و خوراک,food,"[37.3067461, 49.5797483]",37.3067461,49.5797483,4.8,5,"{'1': 0, '2': 0, '3': 0, '4': 1, '5': 4}",60,480,1500
6166555bde4c0a3b704ff2c2,کباب خسرو,khosro-kebab-restaurant-rasht,"[420, 1320]",61409a04f24eeee04882db8c,rasht-city,612b815e2d28e7b40b49ae84,خورد و خوراک,food,"[37.2856661, 49.5834068]",37.2856661,49.5834068,4.0,2,"{'1': 0, '2': 0, '3': 1, '4': 0, '5': 1}",60,420,1320
616656c09ee6b16bd45305be,رستوران تجار,tojjar-restaurant-rasht,"[1140, 1500]",61409a04f24eeee04882db8c,rasht-city,612b815e2d28e7b40b49ae84,خورد و خوراک,food,"[37.2727849, 49.5152542]",37.2727849,49.5152542,4.0,2,"{'1': 0, '2': 0, '3': 0, '4': 2, '5': 0}",60,1140,1500
616657de9ee6b16bd45305bf,کافه جنگا,jenga-cafe-rasht,"[540, 1380]",61409a04f24eeee04882db8c,rasht-city,612b815e2d28e7b40b49ae84,خورد و خوراک,food,"[37.2770124, 49.5816212]",37.2770124,49.5816212,2.5,2,"{'1': 0, '2': 1, '3': 1, '4': 0, '5': 0}",60,540,1380
616658e19ee6b16bd45305c0,کته کبابی موسوی,moosavi-resturant-rasht,"[540, 1020]",61409a04f24eeee04882db8c,rasht-city,612b815e2d28e7b40b49ae84,خورد و خوراک,food,"[37.2805579, 49.5796269]",37.2805579,49.5796269,2.5,2,"{'1': 1, '2': 0, '3': 0, '4': 1, '5': 0}",60,540,1020
61665e54de4c0a3b704ff2c3,باشگاه سوارکاری مهلا,mahla-horse-riding-club-shiraz,"[0, 0]",6140a4bd2dc2260e43ffa307,shiraz-city,612b815e2d28e7b40b49ae8f,جاذبه‌های گردشگری,urban_attractions,"[29.7294642, 52.4640538]",29.7294642,52.4640538,3.857142857142857,7,"{'1': 0, '2': 0, '3': 2, '4': 4, '5': 1}",120,0,0
61665f46de4c0a3b704ff2c4,هتل قوام,ghavam-hotel-shirazi,"[0, 0]",6140a4bd2dc2260e43ffa307,shiraz-city,612b815e2d28e7b40b49aeb8,هتل,Hotel,"[29.6214785, 52.5501856]",29.6214785,52.5501856,3.0,7,"{'1': 2, '2': 1, '3': 1, '4': 1, '5': 2}",180,0,0
6166603d9ee6b16bd45305c1,هتل جهانگردی,jahangardi-hotel-shiraz,"[0, 0]",6140a4bd2dc2260e43ffa307,shiraz-city,612b815e2d28e7b40b49aeb8,هتل,Hotel,"[29.6113582, 52.572015]",29.6113582,52.572015,3.8,5,"{'1': 0, '2': 0, '3': 2, '4': 2, '5': 1}",180,0,0
616662135ada323714597582,رستوران شرزه,sharze-restaurant-shiraz,"[660, 1365]",6140a4bd2dc2260e43ffa307,shiraz-city,612b815e2d28e7b40b49ae84,خورد و خوراک,food,"[29.615395, 52.5461665]",29.615395,52.5461665,4.068965517241379,29,"{'1': 2, '2': 2, '3': 4, '4': 5, '5': 16}",60,660,1365
616662e29ee6b16bd45305c2,باغ رستوران منوچهری,manouchehri-garden-restaurant-shiraz,"[720, 1500]",6140a4bd2dc2260e43ffa307,shiraz-city,612b815e2d28e7b40b49ae84,خورد و خوراک,food,"[29.7773679, 52.4216184]",29.7773679,52.4216184,3.5238095238095237,21,"{'1': 6, '2': 1, '3': 0, '4': 4, '5': 10}",60,720,1500
6166dc1d9ee6b16bd45305c3,رستوران تین,tin-restaurant-shiraz,"[720, 1380]",6140a4bd2dc2260e43ffa307,shiraz-city,612b815e2d28e7b40b49ae84,خورد و خوراک,food,"[29.6338634, 52.521683]",29.6338634,52.521683,3.0,5,"{'1': 1, '2': 1, '3': 1, '4': 1, '5': 1}",60,720,1380
6166df845ada323714597583,فست فود جوی,joy-fastfood-shiraz,"[480, 1500]",6140a4bd2dc2260e43ffa307,shiraz-city,612b815e2d28e7b40b49ae84,خورد و خوراک,food,"[29.6777762, 52.4705212]",29.6777762,52.4705212,3.8,5,"{'1': 0, '2': 1, '3': 1, '4': 1, '5': 2}",60,480,1500
6166e0a55ada323714597584,هتل نور,noor-hotel-mashhad,"[0, 0]",6140a5085c49bb986631011c,mashhad-city,612b815e2d28e7b40b49aeb8,هتل,Hotel,"[36.2881801, 59.6086394]",36.2881801,59.6086394,2.857142857142857,7,"{'1': 3, '2': 0, '3': 0, '4': 3, '5': 1}",180,0,0
6166e159de4c0a3b704ff2c5,هتل کیان,kian-hotel-mashhad,"[0, 0]",6140a5085c49bb986631011c,mashhad-city,612b815e2d28e7b40b49aeb8,هتل,Hotel,"[36.2816229, 59.6129723]",36.2816229,59.6129723,4.0,5,"{'1': 0, '2': 0, '3': 2, '4': 1, '5': 2}",180,0,0
6166e2289ee6b16bd45305c4,هتل رضا,reza-hotel-mashhad,"[0, 0]",6140a5085c49bb986631011c,mashhad-city,612b815e2d28e7b40b49aeb8,هتل,Hotel,"[36.2928667, 59.6231944]",36.2928667,59.6231944,3.7142857142857144,7,"{'1': 2, '2': 0, '3': 0, '4': 1, '5': 4}",180,0,0
6166e4795ada323714597585,هتل کوثر ناب,kosar-nab-hotel-mashhad,"[0, 0]",6140a5085c49bb986631011c,mashhad-city,612b815e2d28e7b40b49aeb8,هتل,Hotel,"[36.2896266, 59.6278856]",36.2896266,59.6278856,4.0,4,"{'1': 0, '2': 1, '3': 0, '4': 1, '5': 2}",180,0,0
6166e5745ada323714597586,هتل اولیا,oleia-hotel-mashhad,"[0, 0]",6140a5085c49bb986631011c,mashhad-city,612b815e2d28e7b40b49aeb8,هتل,Hotel,"[36.2972762, 59.6083907]",36.2972762,59.6083907,3.142857142857143,7,"{'1': 2, '2': 0, '3': 2, '4': 1, '5': 2}",180,0,0
6166e6ad9ee6b16bd45305c5,هتل هاترا,hatra-hotel-mashhad,"[0, 0]",6140a5085c49bb986631011c,mashhad-city,612b815e2d28e7b40b49aeb8,هتل,Hotel,"[36.2823171, 59.6044623]",36.2823171,59.6044623,3.0,6,"{'1': 2, '2': 0, '3': 0, '4': 4, '5': 0}",180,0,0
6166e7cb5ada323714597588,هتل اطلس ,atlas-hotel-mashhad,"[0, 0]",6140a5085c49bb986631011c,mashhad-city,612b815e2d28e7b40b49aeb8,هتل,Hotel,"[36.2829441, 59.612328]",36.2829441,59.612328,2.9,40,"{'1': 15, '2': 2, '3': 5, '4': 8, '5': 10}",180,0,0
6166e97dde4c0a3b704ff2c6,هتل رز درویشی,rose darvishi hotel,"[0, 0]",6140a5085c49bb986631011c,mashhad-city,612b815e2d28e7b40b49aeb8,هتل,Hotel,"[36.283397, 59.6116514]",36.283397,59.6116514,3.7857142857142856,28,"{'1': 3, '2': 2, '3': 4, '4': 8, '5': 11}",180,0,0
6166ea4c5ada323714597589,هتل آپارتمان دیدار,didar-apartment-hotel-mashhad,"[0, 0]",6140a5085c49bb986631011c,mashhad-city,612b815e2d28e7b40b49aeb8,هتل,Hotel,"[36.2810529, 59.6109666]",36.2810529,59.6109666,3.6666666666666665,3,"{'1': 0, '2': 0, '3': 1, '4': 2, '5': 0}",180,0,0
616a7dcecf5b4f429f8926ca,هتل آراد,arad-hotel-mashhad,"[0, 0]",6140a5085c49bb986631011c,mashhad-city,612b815e2d28e7b40b49aeb8,هتل,Hotel,"[36.2789011, 59.6069232]",36.2789011,59.6069232,4.25,4,"{'1': 0, '2': 0, '3': 1, '4': 1, '5': 2}",180,0,0
616a7e7ede4c0a3b704ff2c8,هتل سعدی ,saadi-hotel-mashhad,"[0, 0]",6140a5085c49bb986631011c,mashhad-city,612b815e2d28e7b40b49aeb8,هتل,Hotel,"[36.2936771, 59.6031348]",36.2936771,59.6031348,4.666666666666667,3,"{'1': 0, '2': 0, '3': 0, '4': 1, '5': 2}",180,0,0
616a7f6dcf5b4f429f8926cb,هتل شاکر,shaker-hotel-mashahad,"[0, 0]",6140a5085c49bb986631011c,mashhad-city,612b815e2d28e7b40b49aeb8,هتل,Hotel,"[36.2714927, 59.6045878]",36.2714927,59.6045878,4.25,4,"{'1': 0, '2': 0, '3': 1, '4': 1, '5': 2}",180,0,0
616a8031de4c0a3b704ff2c9,هتل صدف,sadaf-hotel-mashhad,"[0, 0]",6140a5085c49bb986631011c,mashhad-city,612b815e2d28e7b40b49aeb8,هتل,Hotel,"[36.3030361, 59.6209668]",36.3030361,59.6209668,4.0,4,"{'1': 0, '2': 0, '3': 2, '4': 0, '5': 2}",180,0,0
616a8196de4c0a3b704ff2ca,هتل فیروزه توس,firooze-toos-hotel-mashhad,"[0, 0]",6140a5085c49bb986631011c,mashhad-city,612b815e2d28e7b40b49aeb8,هتل,Hotel,"[36.2823195, 59.6232743]",36.2823195,59.6232743,4.333333333333333,6,"{'1': 0, '2': 0, '3': 2, '4': 0, '5': 4}",180,0,0
616a82c9cf5b4f429f8926cc,هتل فردوس,ferdous-hotel-mashhad,"[0, 0]",6140a5085c49bb986631011c,mashhad-city,612b815e2d28e7b40b49aeb8,هتل,Hotel,"[36.2804355, 59.6097959]",36.2804355,59.6097959,4.0,51,"{'1': 4, '2': 5, '3': 6, '4': 8, '5': 28}",180,0,0
616a84ac9ee6b16bd45305c7,هتل پرستاره,por-setareh-hotel-mashhad,"[0, 0]",6140a5085c49bb986631011c,mashhad-city,612b815e2d28e7b40b49aeb8,هتل,Hotel,"[36.2765541, 59.6077416]",36.2765541,59.6077416,3.0,8,"{'1': 2, '2': 1, '3': 2, '4': 1, '5': 2}",180,0,0
616a8581de4c0a3b704ff2cb,هتل هفت آسمان,haft-aseman-hotel-mashhad,"[0, 0]",6140a5085c49bb986631011c,mashhad-city,612b815e2d28e7b40b49aeb8,هتل,Hotel,"[36.2813301, 59.6035018]",36.2813301,59.6035018,2.25,8,"{'1': 5, '2': 0, '3': 0, '4': 2, '5': 1}",180,0,0
616a8642de4c0a3b704ff2cc,هتل صادقیه,sadeqiyeh-hotel-mashhad,"[0, 0]",6140a5085c49bb986631011c,mashhad-city,612b815e2d28e7b40b49aeb8,هتل,Hotel,"[36.2863281, 59.6080002]",36.2863281,59.6080002,4.0,3,"{'1': 0, '2': 0, '3': 1, '4': 1, '5': 1}",180,0,0
616a86d9cf5b4f429f8926cd,هتل الوند,alvand-hotel-mashhad,"[0, 0]",6140a5085c49bb986631011c,mashhad-city,612b815e2d28e7b40b49aeb8,هتل,Hotel,"[36.2744444, 59.602325]",36.2744444,59.602325,3.64,25,"{'1': 5, '2': 2, '3': 2, '4': 4, '5': 12}",180,0,0
616a8db39ee6b16bd45305c8,کافه فنجون,fenjoon-cafe-mashhad,"[600, 1500]",6140a5085c49bb986631011c,mashhad-city,612b815e2d28e7b40b49ae84,خورد و خوراک,food,"[36.318228, 59.5530778]",36.318228,59.5530778,4.0,4,"{'1': 0, '2': 0, '3': 1, '4': 2, '5': 1}",60,600,1500
616a8f91de4c0a3b704ff2cd,کافه تایم,time-cafe-mashhad,"[480, 1380]",6140a5085c49bb986631011c,mashhad-city,612b815e2d28e7b40b49ae84,خورد و خوراک,food,"[36.2982101, 59.5730602]",36.2982101,59.5730602,4.5,2,"{'1': 0, '2': 0, '3': 0, '4': 1, '5': 1}",60,480,1380
616a90299ee6b16bd45305c9,هتل ساحلی پردیس مبارکه,pardis-hotel-isfahan,"[0, 0]",6140a4235c49bb986631011b,isfahan-city,612b815e2d28e7b40b49aeb8,هتل,Hotel,"[32.3755375, 51.527044]",32.3755375,51.527044,4.0,7,"{'1': 0, '2': 0, '3': 2, '4': 3, '5': 2}",180,0,0
616a90689ee6b16bd45305ca,رستوران تشریفات,tashrifat-restaurant-mashhad,"[720, 1500]",6140a5085c49bb986631011c,mashhad-city,612b815e2d28e7b40b49ae84,خورد و خوراک,food,"[36.313591, 59.3316502]",36.313591,59.3316502,3.2,5,"{'1': 0, '2': 2, '3': 1, '4': 1, '5': 1}",60,720,1500
616a90fe9ee6b16bd45305cb,هتل سما,sama-hotel-isfahan,"[0, 0]",6140a4235c49bb986631011b,isfahan-city,612b815e2d28e7b40b49aeb8,هتل,Hotel,"[32.67811, 51.8622592]",32.67811,51.8622592,4.25,4,"{'1': 0, '2': 0, '3': 1, '4': 1, '5': 2}",180,0,0
616a918d9ee6b16bd45305cc,رستوران دامون,damoon-restaurant-mashhad,"[750, 1530]",6140a5085c49bb986631011c,mashhad-city,612b815e2d28e7b40b49ae84,خورد و خوراک,food,"[36.337782, 59.4299238]",36.337782,59.4299238,4.0,2,"{'1': 0, '2': 0, '3': 0, '4': 2, '5': 0}",60,750,1530
616a92abde4c0a3b704ff2ce,شربت خانه فیروز,sharbat-khaneh-firuz-isfahan,"[540, 1410]",6140a4235c49bb986631011b,isfahan-city,612b815e2d28e7b40b49ae84,خورد و خوراک,food,"[32.6359171, 51.6561328]",32.6359171,51.6561328,3.75,4,"{'1': 0, '2': 0, '3': 2, '4': 1, '5': 1}",60,540,1410
616a936bcf5b4f429f8926ce,دیزی سرای سید جاغرق,jaghargh-restaurant-mashhad,"[660, 1560]",6140a5085c49bb986631011c,mashhad-city,612b815e2d28e7b40b49ae84,خورد و خوراک,food,"[36.312996, 59.3268158]",36.312996,59.3268158,3.5,8,"{'1': 2, '2': 0, '3': 0, '4': 4, '5': 2}",60,660,1560
616a94319ee6b16bd45305cd,خانه تاریخی ایروانی,iravani-traditional-hotel-isfahan,"[0, 0]",6140a4235c49bb986631011b,isfahan-city,612b815e2d28e7b40b49aeb8,هتل,Hotel,"[32.6698492, 51.6838612]",32.6698492,51.6838612,4.8,5,"{'1': 0, '2': 0, '3': 0, '4': 1, '5': 4}",180,0,0
616a94c89ee6b16bd45305ce,رستوران بام کوهسر,kouhsar-bam-restaurant-mashhad,"[780, 1500]",6140a5085c49bb986631011c,mashhad-city,612b815e2d28e7b40b49ae84,خورد و خوراک,food,"[36.300888, 59.4952248]",36.300888,59.4952248,4.0,5,"{'1': 0, '2': 0, '3': 2, '4': 1, '5': 2}",60,780,1500
616a96379ee6b16bd45305cf,هتل اصفهان,isfahan-hotel,"[0, 0]",6140a4235c49bb986631011b,isfahan-city,612b815e2d28e7b40b49aeb8,هتل,Hotel,"[32.6443436, 51.6520339]",32.6443436,51.6520339,2.0,5,"{'1': 3, '2': 0, '3': 1, '4': 1, '5': 0}",180,0,0
616a9652de4c0a3b704ff2cf,رستوران الزهرا,al-zahra-restaurant-mashhad,"[780, 1380]",6140a5085c49bb986631011c,mashhad-city,612b815e2d28e7b40b49ae84,خورد و خوراک,food,"[36.295094, 59.6122256]",36.295094,59.6122256,3.6,5,"{'1': 1, '2': 0, '3': 1, '4': 1, '5': 2}",60,780,1380
616a98079ee6b16bd45305d0,کافه رستوران لوتوس,lotus-cafe-&-restaurant-isfahan,"[480, 1380]",6140a4235c49bb986631011b,isfahan-city,612b815e2d28e7b40b49ae84,خورد و خوراک,food,"[32.6313839, 51.6506443]",32.6313839,51.6506443,5.0,2,"{'1': 0, '2': 0, '3': 0, '4': 0, '5': 2}",60,480,1380
616a9832cf5b4f429f8926cf,هتل زمزم 2,zamzam-2-hotel-mashhad,"[0, 0]",6140a5085c49bb986631011c,mashhad-city,612b815e2d28e7b40b49aeb8,هتل,Hotel,"[36.2927271, 59.6156122]",36.2927271,59.6156122,4.25,4,"{'1': 0, '2': 0, '3': 0, '4': 3, '5': 1}",180,0,0
616a9ac6de4c0a3b704ff2d0,هتل سی برگ,si-barg-hotel-mashhad,"[0, 0]",6140a5085c49bb986631011c,mashhad-city,612b815e2d28e7b40b49aeb8,هتل,Hotel,"[36.2977691, 59.5690692]",36.2977691,59.5690692,4.75,4,"{'1': 0, '2': 0, '3': 0, '4': 1, '5': 3}",180,0,0
616a9b829ee6b16bd45305d1,هتل منجی,monji-hotel-mashhad,"[0, 0]",6140a5085c49bb986631011c,mashhad-city,612b815e2d28e7b40b49aeb8,هتل,Hotel,"[36.2806572, 59.6142884]",36.2806572,59.6142884,3.0,3,"{'1': 1, '2': 0, '3': 1, '4': 0, '5': 1}",180,0,0
616a9c66de4c0a3b704ff2d1,هتل اترک,atrak-hotel-mashhad,"[0, 0]",6140a5085c49bb986631011c,mashhad-city,612b815e2d28e7b40b49aeb8,هتل,Hotel,"[36.2832761, 59.6130232]",36.2832761,59.6130232,4.454545454545454,11,"{'1': 0, '2': 0, '3': 0, '4': 6, '5': 5}",180,0,0
616a9c97de4c0a3b704ff2d2,رستوران شب نشین,shab-neshin-restaurant-isfahan,"[690, 1500]",6140a4235c49bb986631011b,isfahan-city,612b815e2d28e7b40b49ae84,خورد و خوراک,food,"[32.6460834, 51.5648217]",32.6460834,51.5648217,4.0,4,"{'1': 0, '2': 0, '3': 1, '4': 2, '5': 1}",60,690,1500
616a9dddde4c0a3b704ff2d3,رستوران ایتالیایی سوف,soof-restaurant-isfahan,"[660, 1410]",6140a4235c49bb986631011b,isfahan-city,612b815e2d28e7b40b49ae84,خورد و خوراک,food,"[32.6284529, 51.6581583]",32.6284529,51.6581583,4.0,2,"{'1': 0, '2': 0, '3': 0, '4': 2, '5': 0}",60,660,1410
616a9fdbde4c0a3b704ff2d4,هتل مجلل درویشی,darvishi-royal-hotel-mashhad,"[0, 0]",6140a5085c49bb986631011c,mashhad-city,612b815e2d28e7b40b49aeb8,هتل,Hotel,"[36.2754451, 59.6056635]",36.2754451,59.6056635,3.7142857142857144,42,"{'1': 7, '2': 4, '3': 6, '4': 2, '5': 23}",180,0,0
616aa0a2cf5b4f429f8926d0,رستوران رمانس,romance-restaurant-isfahan,"[480, 1500]",6140a4235c49bb986631011b,isfahan-city,612b815e2d28e7b40b49ae84,خورد و خوراک,food,"[32.636682, 51.7904438]",32.636682,51.7904438,2.0,4,"{'1': 2, '2': 0, '3': 2, '4': 0, '5': 0}",60,480,1500
616aa1fc9ee6b16bd45305d2,هتل طبرستان,tabarestan-hotel-mashhad,"[0, 0]",6140a5085c49bb986631011c,mashhad-city,612b815e2d28e7b40b49aeb8,هتل,Hotel,"[36.2924325, 59.6145555]",36.2924325,59.6145555,3.75,4,"{'1': 0, '2': 1, '3': 1, '4': 0, '5': 2}",180,0,0
616aa2f4de4c0a3b704ff2d5,هتل لاله,laleh-hotel-mashhad,"[0, 0]",6140a5085c49bb986631011c,mashhad-city,612b815e2d28e7b40b49aeb8,هتل,Hotel,"[36.2846741, 59.5679622]",36.2846741,59.5679622,4.2,5,"{'1': 0, '2': 0, '3': 0, '4': 4, '5': 1}",180,0,0
616aacd7cf5b4f429f8926d1,کافه افرا,afra-cafe-isfahan,"[510, 1500]",6140a4235c49bb986631011b,isfahan-city,612b815e2d28e7b40b49ae84,خورد و خوراک,food,"[32.6448457, 51.6436775]",32.6448457,51.6436775,2.6666666666666665,3,"{'1': 1, '2': 0, '3': 1, '4': 1, '5': 0}",60,510,1500
616aadeede4c0a3b704ff2d6,کافه بازی,game-cafe-isfahan,"[1020, 1320]",6140a4235c49bb986631011b,isfahan-city,612b815e2d28e7b40b49ae84,خورد و خوراک,food,"[32.6343504, 51.6457294]",32.6343504,51.6457294,4.666666666666667,3,"{'1': 0, '2': 0, '3': 0, '4': 1, '5': 2}",60,1020,1320
616ab411de4c0a3b704ff2d7,کافه سیمون,simon-cafe-isfahan,"[600, 1500]",6140a4235c49bb986631011b,isfahan-city,612b815e2d28e7b40b49ae84,خورد و خوراک,food,"[32.6355641, 51.6546528]",32.6355641,51.6546528,4.5,6,"{'1': 0, '2': 0, '3': 0, '4': 3, '5': 3}",60,600,1500
616ab545cf5b4f429f8926d2,کافه دیوار,cafe-divar-isfahan,"[480, 1380]",6140a4235c49bb986631011b,isfahan-city,612b815e2d28e7b40b49ae84,خورد و خوراک,food,"[32.629442, 51.6663248]",32.629442,51.6663248,4.0,2,"{'1': 0, '2': 0, '3': 0, '4': 2, '5': 0}",60,480,1380
616ab839de4c0a3b704ff2d8,عمارت سیمون,simon-pavilion-isfahan,"[510, 1500]",6140a4235c49bb986631011b,isfahan-city,612b815e2d28e7b40b49ae8f,جاذبه‌های گردشگری,urban_attractions,"[32.636447, 51.6576342]",32.636447,51.6576342,4.333333333333333,9,"{'1': 0, '2': 0, '3': 1, '4': 4, '5': 4}",120,510,1500
616ab99e9ee6b16bd45305d3,شربت سرای روزگار,roozegar-sharbat-sara-isfahan,"[540, 1350]",6140a4235c49bb986631011b,isfahan-city,612b815e2d28e7b40b49ae84,خورد و خوراک,food,"[32.65808, 51.6777988]",32.65808,51.6777988,4.25,4,"{'1': 0, '2': 0, '3': 1, '4': 1, '5': 2}",60,540,1350
616aba5d9ee6b16bd45305d4,کافه ستاره آبی,blue-star-cafe-isfahan,"[540, 1380]",6140a4235c49bb986631011b,isfahan-city,612b815e2d28e7b40b49ae84,خورد و خوراک,food,"[32.63635, 51.6593498]",32.63635,51.6593498,5.0,3,"{'1': 0, '2': 0, '3': 0, '4': 0, '5': 3}",60,540,1380
616abb02cf5b4f429f8926d3,کافه آرامش,aramesh-cafe-isfahan,"[480, 1500]",6140a4235c49bb986631011b,isfahan-city,612b815e2d28e7b40b49ae84,خورد و خوراک,food,"[32.7037755, 51.6436452]",32.7037755,51.6436452,3.5,2,"{'1': 0, '2': 0, '3': 1, '4': 1, '5': 0}",60,480,1500
616ac0169ee6b16bd45305d5,کافه دال,daal-cafe-isfahan,"[480, 1500]",6140a4235c49bb986631011b,isfahan-city,612b815e2d28e7b40b49ae84,خورد و خوراک,food,"[32.634087, 51.6400998]",32.634087,51.6400998,4.5,2,"{'1': 0, '2': 0, '3': 0, '4': 1, '5': 1}",60,480,1500
616ac0f89ee6b16bd45305d6,کافه پیام,payam-cafe-isfahan,"[540, 1380]",6140a4235c49bb986631011b,isfahan-city,612b815e2d28e7b40b49ae84,خورد و خوراک,food,"[32.6331086, 51.6897894]",32.6331086,51.6897894,4.666666666666667,3,"{'1': 0, '2': 0, '3': 0, '4': 1, '5': 2}",60,540,1380
616ac1e19ee6b16bd45305d7,کافه آلند,aland-cafe-isfahan,"[540, 1380]",6140a4235c49bb986631011b,isfahan-city,612b815e2d28e7b40b49ae84,خورد و خوراک,food,"[32.6576669, 51.6675243]",32.6576669,51.6675243,4.25,4,"{'1': 0, '2': 0, '3': 1, '4': 1, '5': 2}",60,540,1380
616ac2bbcf5b4f429f8926d4,کافه ناژلند,nazhland-restaurant-isfahan,"[480, 1425]",6140a4235c49bb986631011b,isfahan-city,612b815e2d28e7b40b49ae84,خورد و خوراک,food,"[32.639533, 51.6056988]",32.639533,51.6056988,4.625,8,"{'1': 0, '2': 0, '3': 1, '4': 1, '5': 6}",60,480,1425
616ac4e79ee6b16bd45305d8,هتل آپارتمان پاک,pak-apartment-hotel-tabriz,"[0, 0]",6140a4862dc2260e43ffa306,tabriz-city,612b815e2d28e7b40b49aeb8,هتل,Hotel,"[38.0767338, 46.3714912]",38.0767338,46.3714912,5.0,2,"{'1': 0, '2': 0, '3': 0, '4': 0, '5': 2}",180,0,0
616ac5de9ee6b16bd45305d9,هتل آپارتمان کسری,kasra-apartment-hotel-tabriz,"[0, 0]",6140a4862dc2260e43ffa306,tabriz-city,612b815e2d28e7b40b49aeb8,هتل,Hotel,"[38.0194121, 46.3579582]",38.0194121,46.3579582,4.333333333333333,3,"{'1': 0, '2': 0, '3': 1, '4': 0, '5': 2}",180,0,0
616ac6eb9ee6b16bd45305da,هتل ائل آی,elay-hotel-tabriz,"[0, 0]",6140a4862dc2260e43ffa306,tabriz-city,612b815e2d28e7b40b49aeb8,هتل,Hotel,"[38.0781591, 46.3777562]",38.0781591,46.3777562,4.5,4,"{'1': 0, '2': 0, '3': 0, '4': 2, '5': 2}",180,0,0
616ac7919ee6b16bd45305db,کافه سینما سکانس,sequence-cinema-cafe-isfahan,"[510, 1410]",6140a4235c49bb986631011b,isfahan-city,612b815e2d28e7b40b49ae84,خورد و خوراک,food,"[32.6462524, 51.6664903]",32.6462524,51.6664903,3.8333333333333335,6,"{'1': 0, '2': 1, '3': 1, '4': 2, '5': 2}",60,510,1410
616ac93ade4c0a3b704ff2d9,کافه کیوسک,kiosk-cafe-tabriz,"[510, 1380]",6140a4862dc2260e43ffa306,tabriz-city,612b815e2d28e7b40b49ae84,خورد و خوراک,food,"[38.043155, 46.3585058]",38.043155,46.3585058,5.0,2,"{'1': 0, '2': 0, '3': 0, '4': 0, '5': 2}",60,510,1380
616acd0c9ee6b16bd45305dc,کافه پام فیلیا,pamfilia-cafe-tabroz,"[510, 1410]",6140a4862dc2260e43ffa306,tabriz-city,612b815e2d28e7b40b49ae84,خورد و خوراک,food,"[38.0620647, 46.2833598]",38.0620647,46.2833598,5.0,2,"{'1': 0, '2': 0, '3': 0, '4': 0, '5': 2}",60,510,1410
616acde6cf5b4f429f8926d5,رستوران دریایی بالیق,baliq-restaurant-tabriz,"[600, 1380]",6140a4862dc2260e43ffa306,tabriz-city,612b815e2d28e7b40b49ae84,خورد و خوراک,food,"[38.072936, 46.2873795]",38.072936,46.2873795,4.666666666666667,3,"{'1': 0, '2': 0, '3': 0, '4': 1, '5': 2}",60,600,1380
616aceb5cf5b4f429f8926d6,رستوران ایمانی, imani-restaurant-tabriz,"[600, 1380]",6140a4862dc2260e43ffa306,tabriz-city,612b815e2d28e7b40b49ae84,خورد و خوراک,food,"[38.034917, 46.1635102]",38.034917,46.1635102,5.0,7,"{'1': 0, '2': 0, '3': 0, '4': 0, '5': 7}",60,600,1380
616acfd5de4c0a3b704ff2da,کافه چتر,chatr-cafe-rasht,"[960, 1500]",61409a04f24eeee04882db8c,rasht-city,612b815e2d28e7b40b49ae84,خورد و خوراک,food,"[37.2771932, 49.5731876]",37.2771932,49.5731876,3.5,2,"{'1': 0, '2': 0, '3': 1, '4': 1, '5': 0}",60,960,1500
616ad17ede4c0a3b704ff2db,کاروانسرای لات,laat-caravanserai-rasht,"[600, 1320]",61409a04f24eeee04882db8c,rasht-city,612b815e2d28e7b40b49ae8f,جاذبه‌های گردشگری,urban_attractions,"[37.0298, 49.6349198]",37.0298,49.6349198,4.428571428571429,7,"{'1': 0, '2': 0, '3': 1, '4': 2, '5': 4}",120,600,1320
616ad2509ee6b16bd45305dd,رستوران برگراد,burgerad-restaurant-rasht,"[720, 1500]",61409a04f24eeee04882db8c,rasht-city,612b815e2d28e7b40b49ae84,خورد و خوراک,food,"[37.3407951, 49.6329342]",37.3407951,49.6329342,4.666666666666667,3,"{'1': 0, '2': 0, '3': 0, '4': 1, '5': 2}",60,720,1500
616ad2f09ee6b16bd45305de,هتل اردیبهشت,ordibehesht-hotel-rasht,"[0, 0]",61409a04f24eeee04882db8c,rasht-city,612b815e2d28e7b40b49aeb8,هتل,Hotel,"[37.2796911, 49.5829542]",37.2796911,49.5829542,2.230769230769231,13,"{'1': 6, '2': 1, '3': 4, '4': 1, '5': 1}",180,0,0
616ad8e6de4c0a3b704ff2dc,کافه سنتی کادوس,kadus-cafe-rasht,"[720, 1500]",61409a04f24eeee04882db8c,rasht-city,612b815e2d28e7b40b49ae84,خورد و خوراک,food,"[37.2614176, 49.5918875]",37.2614176,49.5918875,4.0,3,"{'1': 0, '2': 0, '3': 1, '4': 1, '5': 1}",60,720,1500
616ad96d9ee6b16bd45305df,کافه رییس,raees-coffee-rasht,"[480, 1500]",61409a04f24eeee04882db8c,rasht-city,612b815e2d28e7b40b49ae84,خورد و خوراک,food,"[37.2623762, 49.5900661]",37.2623762,49.5900661,4.5,4,"{'1': 0, '2': 0, '3': 0, '4': 2, '5': 2}",60,480,1500
616ada659ee6b16bd45305e0,کافه دوک,duke-coffee-shop-rasht,"[600, 1410]",61409a04f24eeee04882db8c,rasht-city,612b815e2d28e7b40b49ae84,خورد و خوراک,food,"[37.3084831, 49.5867067]",37.3084831,49.5867067,2.5,4,"{'1': 1, '2': 1, '3': 1, '4': 1, '5': 0}",60,600,1410
616adb88cf5b4f429f8926d7,کافه کتاب سایه,saye-book-cafe-in-rasht,"[480, 1500]",61409a04f24eeee04882db8c,rasht-city,612b815e2d28e7b40b49ae84,خورد و خوراک,food,"[37.288959, 49.5971168]",37.288959,49.5971168,4.5,6,"{'1': 0, '2': 0, '3': 1, '4': 1, '5': 4}",60,480,1500
616adc7ccf5b4f429f8926d8,کافه گالری احمد,cafe-gallery-ahmad-rasht,"[480, 1410]",61409a04f24eeee04882db8c,rasht-city,612b815e2d28e7b40b49ae84,خورد و خوراک,food,"[37.2648229, 49.5831452]",37.2648229,49.5831452,5.0,4,"{'1': 0, '2': 0, '3': 0, '4': 0, '5': 4}",60,480,1410
616adf319ee6b16bd45305e1,کافی شاپ سیب,sib-caffee-shop-rasht,"[1020, 1560]",61409a04f24eeee04882db8c,rasht-city,612b815e2d28e7b40b49ae84,خورد و خوراک,food,"[37.2850486, 49.579493]",37.2850486,49.579493,3.6666666666666665,3,"{'1': 0, '2': 0, '3': 1, '4': 2, '5': 0}",60,1020,1560
616bce74ce4f063f2ec846d7,خانه بوم گردی ستایش,setayesh-house-shiraz,"[0, 0]",6140a4bd2dc2260e43ffa307,shiraz-city,612b815e2d28e7b40b49aeb8,هتل,Hotel,"[29.6122391, 52.5378215]",29.6122391,52.5378215,4.0,4,"{'1': 0, '2': 0, '3': 1, '4': 2, '5': 1}",180,0,0
616bcf17ce4f063f2ec846d8,هتل ستارگان,setaregan-hotel-shiraz,"[0, 0]",6140a4bd2dc2260e43ffa307,shiraz-city,612b815e2d28e7b40b49aeb8,هتل,Hotel,"[29.6298662, 52.5363842]",29.6298662,52.5363842,2.4375,16,"{'1': 7, '2': 2, '3': 1, '4': 5, '5': 1}",180,0,0
616bcfd1ce4f063f2ec846d9,هتل سنتی درباری,darbari-hotel-shiraz,"[0, 0]",6140a4bd2dc2260e43ffa307,shiraz-city,612b815e2d28e7b40b49aeb8,هتل,Hotel,"[29.6126292, 52.5397092]",29.6126292,52.5397092,4.105263157894737,19,"{'1': 2, '2': 1, '3': 1, '4': 4, '5': 11}",180,0,0
616bd1cc32b9f968b9cb052d,کافه رستوران آبیژ,abizh-cafe-restaurant-shiraz,"[0, 0]",6140a4bd2dc2260e43ffa307,shiraz-city,612b815e2d28e7b40b49ae84,خورد و خوراک,food,"[29.6309022, 52.5541692]",29.6309022,52.5541692,4.333333333333333,6,"{'1': 0, '2': 0, '3': 1, '4': 2, '5': 3}",60,0,0
616bd840d13b91f203653d89,کافه استریت لانژ,street-lounge-cafe-shiraz,"[540, 1365]",6140a4bd2dc2260e43ffa307,shiraz-city,612b815e2d28e7b40b49ae84,خورد و خوراک,food,"[29.6780138, 52.459576]",29.6780138,52.459576,3.2666666666666666,15,"{'1': 1, '2': 2, '3': 6, '4': 4, '5': 2}",60,540,1365
616bda2ad13b91f203653d8a,کافه رستوران ژولپ,joulep-cafe-restaurant-shiraz,"[480, 1380]",6140a4bd2dc2260e43ffa307,shiraz-city,612b815e2d28e7b40b49ae84,خورد و خوراک,food,"[29.6149242, 52.5449918]",29.6149242,52.5449918,4.125,8,"{'1': 0, '2': 0, '3': 1, '4': 5, '5': 2}",60,480,1380
616bdb6832b9f968b9cb052e,هتل سنتی پنج دری,panj-dari-traditional-house-shiraz,"[0, 0]",6140a4bd2dc2260e43ffa307,shiraz-city,612b815e2d28e7b40b49aeb8,هتل,Hotel,"[29.6091668, 52.5425428]",29.6091668,52.5425428,3.888888888888889,9,"{'1': 1, '2': 0, '3': 2, '4': 2, '5': 4}",180,0,0
616bdc30d13b91f203653d8b,کافه بازی آلتو,alto-board-game-cafe-shiraz,"[1020, 1500]",6140a4bd2dc2260e43ffa307,shiraz-city,612b815e2d28e7b40b49ae84,خورد و خوراک,food,"[29.6374193, 52.461592]",29.6374193,52.461592,4.333333333333333,6,"{'1': 0, '2': 0, '3': 1, '4': 2, '5': 3}",60,1020,1500
616bdd2fd13b91f203653d8c,هتل سپنتا,sepanta hotel-mashhad,"[0, 0]",6140a5085c49bb986631011c,mashhad-city,612b815e2d28e7b40b49aeb8,هتل,Hotel,"[36.2922401, 59.6063521]",36.2922401,59.6063521,3.8333333333333335,6,"{'1': 0, '2': 1, '3': 1, '4': 2, '5': 2}",180,0,0
616c0a7332b9f968b9cb052f,هتل اعیان,ayan-hotel-mashhad,"[0, 0]",6140a5085c49bb986631011c,mashhad-city,612b815e2d28e7b40b49aeb8,هتل,Hotel,"[36.2826157, 59.6126823]",36.2826157,59.6126823,4.5,4,"{'1': 0, '2': 0, '3': 1, '4': 0, '5': 3}",180,0,0
616c0b11ce4f063f2ec846da,هتل ثامن,samen-hotel-mashhad,"[0, 0]",6140a5085c49bb986631011c,mashhad-city,612b815e2d28e7b40b49aeb8,هتل,Hotel,"[36.3415859, 59.4404105]",36.3415859,59.4404105,4.0,8,"{'1': 1, '2': 1, '3': 0, '4': 1, '5': 5}",180,0,0
616c0bf732b9f968b9cb0530,هتل عماد,emad-hotel-mashhad,"[0, 0]",6140a5085c49bb986631011c,mashhad-city,612b815e2d28e7b40b49aeb8,هتل,Hotel,"[36.2945629, 59.6226757]",36.2945629,59.6226757,2.522222222222222,90,"{'1': 51, '2': 3, '3': 4, '4': 2, '5': 30}",180,0,0
616c0cd7ce4f063f2ec846db,هتل نسیم شرق,nasim-shargh-hotel-mashhad,"[0, 0]",6140a5085c49bb986631011c,mashhad-city,612b815e2d28e7b40b49aeb8,هتل,Hotel,"[36.2801656, 59.6130639]",36.2801656,59.6130639,3.6,5,"{'1': 0, '2': 1, '3': 2, '4': 0, '5': 2}",180,0,0
616c0d6332b9f968b9cb0531,هتل فراز,faraz-hotel-mashhad,"[0, 0]",6140a5085c49bb986631011c,mashhad-city,612b815e2d28e7b40b49aeb8,هتل,Hotel,"[36.2724101, 59.6014302]",36.2724101,59.6014302,4.333333333333333,6,"{'1': 0, '2': 0, '3': 0, '4': 4, '5': 2}",180,0,0
616c0e38ce4f063f2ec846dc,هتل ارمغان,armaghan-hotel-mashhad,"[0, 0]",6140a5085c49bb986631011c,mashhad-city,612b815e2d28e7b40b49aeb8,هتل,Hotel,"[36.2763967, 59.6096675]",36.2763967,59.6096675,2.8076923076923075,26,"{'1': 12, '2': 0, '3': 4, '4': 1, '5': 9}",180,0,0
616c0ed432b9f968b9cb0532,هتل جواهری,javaheri-hotel-mashhad,"[0, 0]",6140a5085c49bb986631011c,mashhad-city,612b815e2d28e7b40b49aeb8,هتل,Hotel,"[36.2826836, 59.6070555]",36.2826836,59.6070555,2.9,20,"{'1': 8, '2': 0, '3': 4, '4': 2, '5': 6}",180,0,0
616c0f9632b9f968b9cb0533,هتل میامی,miami-hotel-mashhad,"[0, 0]",6140a5085c49bb986631011c,mashhad-city,612b815e2d28e7b40b49aeb8,هتل,Hotel,"[36.2713242, 59.6005509]",36.2713242,59.6005509,3.4444444444444446,9,"{'1': 2, '2': 2, '3': 0, '4': 0, '5': 5}",180,0,0
616c102dce4f063f2ec846dd,هتل نگین پاسارگاد,negin-pasargad-hotel-mashhad,"[0, 0]",6140a5085c49bb986631011c,mashhad-city,612b815e2d28e7b40b49aeb8,هتل,Hotel,"[36.2921197, 59.6109479]",36.2921197,59.6109479,4.071428571428571,14,"{'1': 1, '2': 0, '3': 1, '4': 7, '5': 5}",180,0,0
616c1102ce4f063f2ec846de,هتل پارسیان مشهد,parsian-hotel-mashhad,"[0, 0]",6140a5085c49bb986631011c,mashhad-city,612b815e2d28e7b40b49aeb8,هتل,Hotel,"[36.2865755, 59.5725794]",36.2865755,59.5725794,4.5,4,"{'1': 0, '2': 0, '3': 0, '4': 2, '5': 2}",180,0,0
616c1187d13b91f203653d8d,هتل خیام,khayyam-hotel-mashhad,"[0, 0]",6140a5085c49bb986631011c,mashhad-city,612b815e2d28e7b40b49aeb8,هتل,Hotel,"[36.2959553, 59.6076827]",36.2959553,59.6076827,3.8333333333333335,6,"{'1': 1, '2': 0, '3': 1, '4': 1, '5': 3}",180,0,0
616c1213d13b91f203653d8e,هتل استقلال,esteghlal-hotel-mashhad,"[0, 0]",6140a5085c49bb986631011c,mashhad-city,612b815e2d28e7b40b49aeb8,هتل,Hotel,"[36.291015, 59.6109388]",36.291015,59.6109388,4.0,5,"{'1': 0, '2': 0, '3': 1, '4': 3, '5': 1}",180,0,0
616c1293ce4f063f2ec846df,هتل ارگ,arg-hotel-mashhad,"[0, 0]",6140a5085c49bb986631011c,mashhad-city,612b815e2d28e7b40b49aeb8,هتل,Hotel,"[36.2799317, 59.608378]",36.2799317,59.608378,2.75,8,"{'1': 3, '2': 1, '3': 1, '4': 1, '5': 2}",180,0,0
616c15e3d13b91f203653d91,پارک جنگلی ناژوان,nazhvan-park-isfahan,"[600, 1320]",6140a4235c49bb986631011b,isfahan-city,612b815e2d28e7b40b49ae90,جاذبه‌ی طبیعی,natural_attractions,"[32.6377808, 51.6379198]",32.6377808,51.6379198,4.571428571428571,7,"{'1': 0, '2': 0, '3': 0, '4': 3, '5': 4}",120,600,1320
616c26cc17b0ee0717e8d16d,هتل صبا,saba-hotel-isfahan,"[0, 0]",6140a4235c49bb986631011b,isfahan-city,612b815e2d28e7b40b49aeb8,هتل,Hotel,"[32.6668552, 51.67102]",32.6668552,51.67102,3.2,5,"{'1': 0, '2': 1, '3': 2, '4': 2, '5': 0}",180,0,0
616c274b4a4586d1761e61ba,هتل جمشید,jamshid-hotel-isfahan,"[0, 0]",6140a4235c49bb986631011b,isfahan-city,612b815e2d28e7b40b49aeb8,هتل,Hotel,"[32.6610219, 51.6694979]",32.6610219,51.6694979,3.25,4,"{'1': 1, '2': 0, '3': 1, '4': 1, '5': 1}",180,0,0
616c288d4a4586d1761e61bb,حمام علی قلی آقا,ali-gholi-agha-historical-bath-isfahan,"[420, 1260]",6140a4235c49bb986631011b,isfahan-city,612b815e2d28e7b40b49ae8f,جاذبه‌های گردشگری,urban_attractions,"[32.6678531, 51.667725]",32.6678531,51.667725,4.571428571428571,7,"{'1': 0, '2': 0, '3': 1, '4': 1, '5': 5}",120,420,1260
616c74054a4586d1761e61bc,پل مارنان,marnan-bridge-isfahan,"[0, 0]",6140a4235c49bb986631011b,isfahan-city,612b815e2d28e7b40b49ae8f,جاذبه‌های گردشگری,urban_attractions,"[32.641587, 51.6435567]",32.641587,51.6435567,4.4,10,"{'1': 0, '2': 0, '3': 1, '4': 4, '5': 5}",120,0,0
616c74a84a4586d1761e61bd,خانه امین,amin's house,"[540, 960]",6140a4235c49bb986631011b,isfahan-city,612b815e2d28e7b40b49ae8f,جاذبه‌های گردشگری,urban_attractions,"[32.6662107, 51.6711903]",32.6662107,51.6711903,4.6,5,"{'1': 0, '2': 0, '3': 0, '4': 2, '5': 3}",120,540,960
616c75d817b0ee0717e8d16e,خانه تاریخی کشیش,keshish-house-isfahan,"[0, 0]",6140a4235c49bb986631011b,isfahan-city,612b815e2d28e7b40b49ae8f,جاذبه‌های گردشگری,urban_attractions,"[32.6297763, 51.6502075]",32.6297763,51.6502075,4.444444444444445,9,"{'1': 0, '2': 0, '3': 1, '4': 3, '5': 5}",120,0,0
616d187417b0ee0717e8d16f,کاخ عالی قاپو,aali-qapu-palace-isfahan,"[540, 1080]",6140a4235c49bb986631011b,isfahan-city,612b815e2d28e7b40b49ae8f,جاذبه‌های گردشگری,urban_attractions,"[32.6570879, 51.6767773]",32.6570879,51.6767773,4.95,20,"{'1': 0, '2': 0, '3': 0, '4': 1, '5': 19}",120,540,1080
616d195217b0ee0717e8d170,موزه گنجینه‌های هنرهای تزیینی (رکیب خانه),museum-of-decorative-arts-isfahan,"[510, 810]",6140a4235c49bb986631011b,isfahan-city,612b815e2d28e7b40b49ae8f,جاذبه‌های گردشگری,urban_attractions,"[32.6562135, 51.6741942]",32.6562135,51.6741942,4.2,5,"{'1': 0, '2': 0, '3': 1, '4': 2, '5': 2}",120,510,810
616d1a6f4a4586d1761e61be,خانه کدخدایی,kadkhodaei-historical-house-isfahan,"[0, 0]",6140a4235c49bb986631011b,isfahan-city,612b815e2d28e7b40b49ae8f,جاذبه‌های گردشگری,urban_attractions,"[32.6742437, 51.682767]",32.6742437,51.682767,4.6,5,"{'1': 0, '2': 0, '3': 0, '4': 2, '5': 3}",120,0,0
616d1b0b17b0ee0717e8d171,موزه عصارخانه شاهی,assarkhaneh-shahi-museum-isfahan,"[570, 1020]",6140a4235c49bb986631011b,isfahan-city,612b815e2d28e7b40b49ae8f,جاذبه‌های گردشگری,urban_attractions,"[32.6609611, 51.6782082]",32.6609611,51.6782082,4.25,8,"{'1': 0, '2': 0, '3': 2, '4': 2, '5': 4}",120,570,1020
616d1c624a4586d1761e61bf,مسجد امام,imam-mosque-isfahan,"[540, 960]",6140a4235c49bb986631011b,isfahan-city,612b815e2d28e7b40b49ae8f,جاذبه‌های گردشگری,urban_attractions,"[32.6544359, 51.6777114]",32.6544359,51.6777114,4.923076923076923,13,"{'1': 0, '2': 0, '3': 0, '4': 1, '5': 12}",120,540,960
616d1d2d17b0ee0717e8d172,گرمابه شیخ بهائی,shaykh-bahai-hammam-isfahan,"[0, 0]",6140a4235c49bb986631011b,isfahan-city,612b815e2d28e7b40b49ae8f,جاذبه‌های گردشگری,urban_attractions,"[51.6779022, 51.6779022]",51.6779022,51.6779022,4.5,4,"{'1': 0, '2': 0, '3': 1, '4': 0, '5': 3}",120,0,0
616d1e328d016d097431092a,محله جلفا,julfa-district-isfahan,"[0, 0]",6140a4235c49bb986631011b,isfahan-city,612b815e2d28e7b40b49ae8f,جاذبه‌های گردشگری,urban_attractions,"[32.6324399, 51.6601761]",32.6324399,51.6601761,4.857142857142857,14,"{'1': 0, '2': 0, '3': 0, '4': 2, '5': 12}",120,0,0
616d1f5b17b0ee0717e8d173,آرامگاه شیخ عبدالصمد نطنزی,sheikh-abdul-samad-tomb-isfahan,"[0, 0]",6140a4235c49bb986631011b,isfahan-city,612b815e2d28e7b40b49ae8f,جاذبه‌های گردشگری,urban_attractions,"[33.5202184, 51.9131581]",33.5202184,51.9131581,4.6,5,"{'1': 0, '2': 0, '3': 0, '4': 2, '5': 3}",120,0,0
616d202c4a4586d1761e61c0,کاخ چهل ستون,chehel sotoon palace,"[540, 1020]",6140a4235c49bb986631011b,isfahan-city,612b815e2d28e7b40b49ae8f,جاذبه‌های گردشگری,urban_attractions,"[32.6573758, 51.6719913]",32.6573758,51.6719913,4.857142857142857,21,"{'1': 0, '2': 0, '3': 0, '4': 3, '5': 18}",120,540,1020
616d21154a4586d1761e61c1,مدرسه چهار باغ,chahar-bagh-theological-school-isfahan,"[840, 1200]",6140a4235c49bb986631011b,isfahan-city,612b815e2d28e7b40b49ae8f,جاذبه‌های گردشگری,urban_attractions,"[32.6516485, 51.6692299]",32.6516485,51.6692299,4.571428571428571,7,"{'1': 0, '2': 0, '3': 1, '4': 1, '5': 5}",120,840,1200
616d21d317b0ee0717e8d174,قلعه سارویه,sarouyeh-castle-isfahan,"[0, 0]",6140a4235c49bb986631011b,isfahan-city,612b815e2d28e7b40b49ae8f,جاذبه‌های گردشگری,urban_attractions,"[32.6316163, 51.7116731]",32.6316163,51.7116731,3.5,4,"{'1': 0, '2': 0, '3': 2, '4': 2, '5': 0}",120,0,0
616d225e17b0ee0717e8d175,آرامگاه صائب تبریزی,saeb-tabriz-monument,"[0, 0]",6140a4235c49bb986631011b,isfahan-city,612b815e2d28e7b40b49ae8f,جاذبه‌های گردشگری,urban_attractions,"[32.6476454, 51.6515423]",32.6476454,51.6515423,4.535714285714286,28,"{'1': 0, '2': 1, '3': 2, '4': 6, '5': 19}",120,0,0
616d24444a4586d1761e61c2,زاینده رود,zayandeh-rud-isfahan,"[0, 0]",6140a4235c49bb986631011b,isfahan-city,612b815e2d28e7b40b49ae90,جاذبه‌ی طبیعی,natural_attractions,"[32.644333, 51.6661364]",32.644333,51.6661364,4.933333333333334,15,"{'1': 0, '2': 0, '3': 0, '4': 1, '5': 14}",120,0,0
616d24c48d016d097431092b,حمام قاضی,qazi-persian-bath-isfahan,"[0, 0]",6140a4235c49bb986631011b,isfahan-city,612b815e2d28e7b40b49ae8f,جاذبه‌های گردشگری,urban_attractions,"[32.6733409, 51.6832841]",32.6733409,51.6832841,4.571428571428571,7,"{'1': 0, '2': 0, '3': 0, '4': 3, '5': 4}",120,0,0
616d256617b0ee0717e8d176,قلعه شاه‌ دژ,shahdiz-isfahan,"[960, 1320]",6140a4235c49bb986631011b,isfahan-city,612b815e2d28e7b40b49ae8f,جاذبه‌های گردشگری,urban_attractions,"[32.5735653, 51.6533277]",32.5735653,51.6533277,4.428571428571429,7,"{'1': 0, '2': 0, '3': 1, '4': 2, '5': 4}",120,960,1320
616d26c84a4586d1761e61c3,هتل‌ ایران,iran-hotel-tabriz,"[0, 0]",6140a4862dc2260e43ffa306,tabriz-city,612b815e2d28e7b40b49aeb8,هتل,Hotel,"[38.072484, 46.2395748]",38.072484,46.2395748,3.0,4,"{'1': 2, '2': 0, '3': 0, '4': 0, '5': 2}",180,0,0
616d27d217b0ee0717e8d178,هتل فرید‌,farid-hotel-tabriz,"[0, 0]",6140a4862dc2260e43ffa306,tabriz-city,612b815e2d28e7b40b49aeb8,هتل,Hotel,"[38.0710612, 46.2869125]",38.0710612,46.2869125,4.0,11,"{'1': 1, '2': 1, '3': 1, '4': 2, '5': 6}",180,0,0
616d295917b0ee0717e8d179,موزه‌ تاریخ طبیعی,isfahan-museum-of-natural-history,"[0, 0]",6140a4235c49bb986631011b,isfahan-city,612b815e2d28e7b40b49ae8f,جاذبه‌های گردشگری,urban_attractions,"[32.6583087, 51.6738168]",32.6583087,51.6738168,3.75,4,"{'1': 0, '2': 0, '3': 2, '4': 1, '5': 1}",120,0,0
616d2ec14a4586d1761e61c4,سینما سپاهان,sepahan-cinema-in-isfahan,"[720, 1350]",6140a4235c49bb986631011b,isfahan-city,612b815e2d28e7b40b49ae8f,جاذبه‌های گردشگری,urban_attractions,"[32.65496, 51.6679413]",32.65496,51.6679413,3.0,4,"{'1': 0, '2': 1, '3': 2, '4': 1, '5': 0}",120,720,1350
616d2ff38d016d097431092c,موزه آموزش و پرورش,education-museum-of-isfahan,"[480, 720]",6140a4235c49bb986631011b,isfahan-city,612b815e2d28e7b40b49ae8f,جاذبه‌های گردشگری,urban_attractions,"[32.6536803, 51.6744339]",32.6536803,51.6744339,2.3333333333333335,3,"{'1': 0, '2': 2, '3': 1, '4': 0, '5': 0}",120,480,720
616d32fd8d016d097431092d,خانه کلانتری,kalantari-house-in-tabriz,"[0, 0]",6140a4862dc2260e43ffa306,tabriz-city,612b815e2d28e7b40b49ae8f,جاذبه‌های گردشگری,urban_attractions,"[38.0743281, 46.3369772]",38.0743281,46.3369772,4.0,5,"{'1': 0, '2': 0, '3': 2, '4': 1, '5': 2}",120,0,0
616d33b04a4586d1761e61c5,خانه بهنام,behnam's-house-in-tabriz,"[600, 840]",6140a4862dc2260e43ffa306,tabriz-city,612b815e2d28e7b40b49ae8f,جاذبه‌های گردشگری,urban_attractions,"[38.0711716, 46.295409]",38.0711716,46.295409,4.8,5,"{'1': 0, '2': 0, '3': 0, '4': 1, '5': 4}",120,600,840
616d34aa17b0ee0717e8d17a,خانه ارفع الملک جلیلی,arfa-jalili's-house-tabriz,"[0, 0]",6140a4862dc2260e43ffa306,tabriz-city,612b815e2d28e7b40b49ae8f,جاذبه‌های گردشگری,urban_attractions,"[38.0766541, 46.3075276]",38.0766541,46.3075276,4.5,4,"{'1': 0, '2': 0, '3': 1, '4': 0, '5': 3}",120,0,0
616d35498d016d097431092e,برج خلعت پوشان,khalat-pooshan-tower-tabriz,"[0, 0]",6140a4862dc2260e43ffa306,tabriz-city,612b815e2d28e7b40b49ae8f,جاذبه‌های گردشگری,urban_attractions,"[38.0318239, 46.3946274]",38.0318239,46.3946274,4.666666666666667,6,"{'1': 0, '2': 0, '3': 0, '4': 2, '5': 4}",120,0,0
616d367c17b0ee0717e8d17b,خانه دکتر صحتی,doctor-salei's-house-in-tabriz,"[540, 900]",6140a4862dc2260e43ffa306,tabriz-city,612b815e2d28e7b40b49ae8f,جاذبه‌های گردشگری,urban_attractions,"[38.0843953, 46.2897368]",38.0843953,46.2897368,5.0,4,"{'1': 0, '2': 0, '3': 0, '4': 0, '5': 4}",120,540,900
616d44c64a4586d1761e61c6,ربع رشیدی,rab'-e-rashidi-complex-in-tabriz,"[0, 0]",6140a4862dc2260e43ffa306,tabriz-city,612b815e2d28e7b40b49ae8f,جاذبه‌های گردشگری,urban_attractions,"[38.0792716, 46.3300405]",38.0792716,46.3300405,4.5,6,"{'1': 0, '2': 0, '3': 0, '4': 3, '5': 3}",120,0,0
616d456f8d016d097431092f,مدرسه ظهیریه,zahirie-traditional-school-tabriz,"[0, 0]",6140a4862dc2260e43ffa306,tabriz-city,612b815e2d28e7b40b49ae8f,جاذبه‌های گردشگری,urban_attractions,"[38.084177, 46.3037617]",38.084177,46.3037617,4.8,5,"{'1': 0, '2': 0, '3': 0, '4': 1, '5': 4}",120,0,0
616d488d4a4586d1761e61c7,خانه شربت اوغلی,sharbat-oghli-house-in-tabriz,"[600, 855]",6140a4862dc2260e43ffa306,tabriz-city,612b815e2d28e7b40b49ae8f,جاذبه‌های گردشگری,urban_attractions,"[38.0918811, 46.2903158]",38.0918811,46.2903158,4.75,4,"{'1': 0, '2': 0, '3': 0, '4': 1, '5': 3}",120,600,855
616d49ad17b0ee0717e8d17c,مدرسه اکبریه,akbariyeh-highschool-tabriz,"[0, 0]",6140a4862dc2260e43ffa306,tabriz-city,612b815e2d28e7b40b49ae8f,جاذبه‌های گردشگری,urban_attractions,"[38.1025581, 46.3050532]",38.1025581,46.3050532,4.25,4,"{'1': 0, '2': 0, '3': 1, '4': 1, '5': 2}",120,0,0
616d4f224a4586d1761e61c8,پیاده راه تربیت,tarbiat-street-in-tabriz,"[0, 0]",6140a4862dc2260e43ffa306,tabriz-city,612b815e2d28e7b40b49ae8f,جاذبه‌های گردشگری,urban_attractions,"[38.0767341, 46.2931422]",38.0767341,46.2931422,4.857142857142857,7,"{'1': 0, '2': 0, '3': 0, '4': 1, '5': 6}",120,0,0
616d4fad17b0ee0717e8d17d,خانه صلح جو,solh-joo-house-in-tabriz,"[0, 0]",6140a4862dc2260e43ffa306,tabriz-city,612b815e2d28e7b40b49ae8f,جاذبه‌های گردشگری,urban_attractions,"[38.0759341, 46.2945822]",38.0759341,46.2945822,4.4,5,"{'1': 0, '2': 0, '3': 1, '4': 1, '5': 3}",120,0,0
616d55208d016d0974310930,حمام نظافت,nezafat-bath-in-tabriz,"[300, 780]",6140a4862dc2260e43ffa306,tabriz-city,612b815e2d28e7b40b49ae8f,جاذبه‌های گردشگری,urban_attractions,"[38.0912, 46.2544892]",38.0912,46.2544892,4.4,5,"{'1': 0, '2': 0, '3': 1, '4': 1, '5': 3}",120,300,780
616d561d17b0ee0717e8d17e,کاخ موزه‌ی شهرداری,municipal-museum-palace-intabriz,"[480, 1080]",6140a4862dc2260e43ffa306,tabriz-city,612b815e2d28e7b40b49ae8f,جاذبه‌های گردشگری,urban_attractions,"[38.0737799, 46.2956984]",38.0737799,46.2956984,4.588235294117647,17,"{'1': 0, '2': 0, '3': 1, '4': 5, '5': 11}",120,480,1080
616d56eb17b0ee0717e8d17f,خانه معبودی,ma'aboudi-house-in-tabriz,"[540, 720]",6140a4862dc2260e43ffa306,tabriz-city,612b815e2d28e7b40b49ae8f,جاذبه‌های گردشگری,urban_attractions,"[38.0694932, 46.2988718]",38.0694932,46.2988718,4.833333333333333,6,"{'1': 0, '2': 0, '3': 0, '4': 1, '5': 5}",120,540,720
616d58f94a4586d1761e61c9,دبیرستان فردوسی,ferdowsi-school-in-tabriz,"[420, 870]",6140a4862dc2260e43ffa306,tabriz-city,612b815e2d28e7b40b49ae8f,جاذبه‌های گردشگری,urban_attractions,"[38.0741225, 38.0741225]",38.0741225,38.0741225,5.0,5,"{'1': 0, '2': 0, '3': 0, '4': 0, '5': 5}",120,420,870
616d5bc64a4586d1761e61ca,خانه علی مسیو,ali-monsieur-museum-in-tabriz,"[540, 840]",6140a4862dc2260e43ffa306,tabriz-city,612b815e2d28e7b40b49ae8f,جاذبه‌های گردشگری,urban_attractions,"[38.0694576, 46.2982998]",38.0694576,46.2982998,4.714285714285714,7,"{'1': 0, '2': 0, '3': 0, '4': 2, '5': 5}",120,540,840
616d5c5717b0ee0717e8d180,مدرسه حسن پادشاه,hasan-padeshah-school-in-tabriz,"[0, 0]",6140a4862dc2260e43ffa306,tabriz-city,612b815e2d28e7b40b49ae8f,جاذبه‌های گردشگری,urban_attractions,"[38.0848362, 46.2947055]",38.0848362,46.2947055,3.8,5,"{'1': 0, '2': 0, '3': 2, '4': 2, '5': 1}",120,0,0
616d601517b0ee0717e8d181,خانه موزه شیخ محمد خیابانی,sheikh-mohammad-khiabani-house-in-tabriz,"[0, 0]",6140a4862dc2260e43ffa306,tabriz-city,612b815e2d28e7b40b49ae8f,جاذبه‌های گردشگری,urban_attractions,"[38.0721284, 46.3060442]",38.0721284,46.3060442,4.714285714285714,7,"{'1': 0, '2': 0, '3': 0, '4': 2, '5': 5}",120,0,0
616d60e94a4586d1761e61cb,امام زاده حلیمه خاتون,halime-khatoon-tomb-in-tabriz,"[540, 1110]",6140a4862dc2260e43ffa306,tabriz-city,612b815e2d28e7b40b49ae8f,جاذبه‌های گردشگری,urban_attractions,"[38.0666571, 46.2904522]",38.0666571,46.2904522,5.0,4,"{'1': 0, '2': 0, '3': 0, '4': 0, '5': 4}",120,540,1110
616d67fb17b0ee0717e8d182,فرش سنگی,farsh-e-sangi-intabriz,"[0, 0]",6140a4862dc2260e43ffa306,tabriz-city,612b815e2d28e7b40b49ae8f,جاذبه‌های گردشگری,urban_attractions,"[38.0710641, 46.3044252]",38.0710641,46.3044252,4.625,8,"{'1': 0, '2': 0, '3': 0, '4': 3, '5': 5}",120,0,0
616d68ae17b0ee0717e8d183,کلیسای کاتولیک ها,catolic-church-in-tabriz,"[540, 1020]",6140a4862dc2260e43ffa306,tabriz-city,612b815e2d28e7b40b49ae8f,جاذبه‌های گردشگری,urban_attractions,"[32.6308921, 51.6494772]",32.6308921,51.6494772,4.833333333333333,6,"{'1': 0, '2': 0, '3': 0, '4': 1, '5': 5}",120,540,1020
616d69b28d016d0974310931,پل سنگی,pol-e--sangi-tabriz,"[0, 0]",6140a4862dc2260e43ffa306,tabriz-city,612b815e2d28e7b40b49ae8f,جاذبه‌های گردشگری,urban_attractions,"[38.0770161, 46.3149702]",38.0770161,46.3149702,4.714285714285714,7,"{'1': 0, '2': 0, '3': 0, '4': 2, '5': 5}",120,0,0
616d6ba18d016d0974310932,درب نوبر,darb-e-nobar-in-tabriz,"[0, 0]",6140a4862dc2260e43ffa306,tabriz-city,612b815e2d28e7b40b49ae8f,جاذبه‌های گردشگری,urban_attractions,"[38.0742343, 46.2933115]",38.0742343,46.2933115,4.666666666666667,6,"{'1': 0, '2': 0, '3': 1, '4': 0, '5': 5}",120,0,0
616d6cdd8d016d0974310933,خانه ساوجبلاغی,savoj-bolaghi-house-in-tabriz,"[0, 0]",6140a4862dc2260e43ffa306,tabriz-city,612b815e2d28e7b40b49ae8f,جاذبه‌های گردشگری,urban_attractions,"[38.0735724, 46.3010181]",38.0735724,46.3010181,4.5,6,"{'1': 0, '2': 0, '3': 0, '4': 3, '5': 3}",120,0,0
616d6f948d016d0974310934,کلیسای مریم مقدس,saint-mary-church-maryam-ana-in-tabriz,"[0, 0]",6140a4862dc2260e43ffa306,tabriz-city,612b815e2d28e7b40b49ae8f,جاذبه‌های گردشگری,urban_attractions,"[38.0786149, 46.2880806]",38.0786149,46.2880806,5.0,13,"{'1': 0, '2': 0, '3': 0, '4': 0, '5': 13}",120,0,0
616d70a74a4586d1761e61cc,برج آتش نشان,tabriz-firefighting-tower,"[0, 0]",6140a4862dc2260e43ffa306,tabriz-city,612b815e2d28e7b40b49ae8f,جاذبه‌های گردشگری,urban_attractions,"[38.0766891, 46.2996386]",38.0766891,46.2996386,4.625,8,"{'1': 0, '2': 0, '3': 0, '4': 3, '5': 5}",120,0,0
616d71ae17b0ee0717e8d184,حمام نوبر,nobar-hammam-in-tabriz,"[0, 0]",6140a4862dc2260e43ffa306,tabriz-city,612b815e2d28e7b40b49ae8f,جاذبه‌های گردشگری,urban_attractions,"[38.0743779, 46.2939972]",38.0743779,46.2939972,4.5,8,"{'1': 0, '2': 0, '3': 0, '4': 4, '5': 4}",120,0,0
616d781d17b0ee0717e8d185,خانه گنجه ای زاده,ganje-ei-zade-house-in-tabriz,"[0, 0]",6140a4862dc2260e43ffa306,tabriz-city,612b815e2d28e7b40b49ae8f,جاذبه‌های گردشگری,urban_attractions,"[38.0712828, 46.2946208]",38.0712828,46.2946208,4.833333333333333,6,"{'1': 0, '2': 0, '3': 0, '4': 1, '5': 5}",120,0,0
616d794017b0ee0717e8d186,مدرسه طالبیه,talebie-school-in-tabriz,"[0, 0]",6140a4862dc2260e43ffa306,tabriz-city,612b815e2d28e7b40b49ae8f,جاذبه‌های گردشگری,urban_attractions,"[38.0812294, 46.2905912]",38.0812294,46.2905912,4.8,5,"{'1': 0, '2': 0, '3': 0, '4': 1, '5': 4}",120,0,0
616d79d98d016d0974310935,بقعه صاحب الامر,saheb-ol-amr-mosque-in-tabriz,"[0, 0]",6140a4862dc2260e43ffa306,tabriz-city,612b815e2d28e7b40b49ae8f,جاذبه‌های گردشگری,urban_attractions,"[38.0843474, 46.2955987]",38.0843474,46.2955987,4.666666666666667,6,"{'1': 0, '2': 0, '3': 0, '4': 2, '5': 4}",120,0,0
616d7acd4a4586d1761e61cd,بازار فرش,honare-tabriz-carpets,"[500, 510]",6140a4862dc2260e43ffa306,tabriz-city,612b815e2d28e7b40b49ae8f,جاذبه‌های گردشگری,urban_attractions,"[38.0780414, 46.2828504]",38.0780414,46.2828504,4.9,20,"{'1': 0, '2': 0, '3': 0, '4': 2, '5': 18}",120,500,510
616d7b484a4586d1761e61ce,خانه صرافلار,saraflar-house-in-tabriz,"[540, 1020]",6140a4862dc2260e43ffa306,tabriz-city,612b815e2d28e7b40b49ae8f,جاذبه‌های گردشگری,urban_attractions,"[38.0878631, 46.3000887]",38.0878631,46.3000887,4.8,5,"{'1': 0, '2': 0, '3': 0, '4': 1, '5': 4}",120,540,1020
616d7d2e8d016d0974310936,پل قاری (قاری کورپوسی),qari-bridge-in-tabriz,"[0, 0]",6140a4862dc2260e43ffa306,tabriz-city,612b815e2d28e7b40b49ae8f,جاذبه‌های گردشگری,urban_attractions,"[38.0797246, 46.3007852]",38.0797246,46.3007852,4.833333333333333,6,"{'1': 0, '2': 0, '3': 0, '4': 1, '5': 5}",120,0,0
616d7dd84a4586d1761e61cf,خانه نیکدل,nikdel-house-in-tabriz,"[480, 1080]",6140a4862dc2260e43ffa306,tabriz-city,612b815e2d28e7b40b49ae8f,جاذبه‌های گردشگری,urban_attractions,"[38.072178, 46.2943074]",38.072178,46.2943074,4.9,10,"{'1': 0, '2': 0, '3': 0, '4': 1, '5': 9}",120,480,1080
616d7e714a4586d1761e61d0,خانه پروین اعتصامی,parvin-etesami's-house-in-tabriz,"[540, 1020]",6140a4862dc2260e43ffa306,tabriz-city,612b815e2d28e7b40b49ae8f,جاذبه‌های گردشگری,urban_attractions,"[38.0784401, 46.3110126]",38.0784401,46.3110126,4.75,8,"{'1': 0, '2': 0, '3': 0, '4': 2, '5': 6}",120,540,1020
616d7f9d8d016d0974310937,خانه استاد شهریار,ostad-shahriar-museum,"[450, 1140]",6140a4862dc2260e43ffa306,tabriz-city,612b815e2d28e7b40b49ae8f,جاذبه‌های گردشگری,urban_attractions,"[38.0697551, 46.2954274]",38.0697551,46.2954274,4.875,16,"{'1': 0, '2': 0, '3': 0, '4': 2, '5': 14}",120,450,1140
616d814e8d016d0974310938,روستای دستکند حیله ور,dastkand-hilevar-village-in-tabriz,"[0, 0]",6140a4862dc2260e43ffa306,tabriz-city,612b815e2d28e7b40b49ae90,جاذبه‌ی طبیعی,natural_attractions,"[37.8099492, 46.2327111]",37.8099492,46.2327111,4.2,5,"{'1': 0, '2': 0, '3': 2, '4': 0, '5': 3}",120,0,0
616d82464a4586d1761e61d1,جنگل ارسباران,arasbaran-protected-area,"[0, 0]",6140a4862dc2260e43ffa306,tabriz-city,612b815e2d28e7b40b49ae90,جاذبه‌ی طبیعی,natural_attractions,"[38.9078191, 46.8653069]",38.9078191,46.8653069,5.0,11,"{'1': 0, '2': 0, '3': 0, '4': 0, '5': 11}",120,0,0
616d83074a4586d1761e61d2,دره سعید آباد,saeed-abad-valley-in-tabriz,"[0, 0]",6140a4862dc2260e43ffa306,tabriz-city,612b815e2d28e7b40b49ae90,جاذبه‌ی طبیعی,natural_attractions,"[37.9474964, 46.590314]",37.9474964,46.590314,5.0,4,"{'1': 0, '2': 0, '3': 0, '4': 0, '5': 4}",120,0,0
616d83fc4a4586d1761e61d3,روستای کندوان,kandovan-ٰvillage,"[0, 0]",6140a4862dc2260e43ffa306,tabriz-city,612b815e2d28e7b40b49ae90,جاذبه‌ی طبیعی,natural_attractions,"[37.7955021, 46.2462682]",37.7955021,46.2462682,4.68,25,"{'1': 1, '2': 0, '3': 1, '4': 2, '5': 21}",120,0,0
616d84bf8d016d0974310939,خانه هنرمندان (خانه ختایی),tabriz-artists-house,"[0, 0]",6140a4862dc2260e43ffa306,tabriz-city,612b815e2d28e7b40b49ae8f,جاذبه‌های گردشگری,urban_attractions,"[38.069664, 46.2982972]",38.069664,46.2982972,4.5,6,"{'1': 0, '2': 0, '3': 0, '4': 3, '5': 3}",120,0,0
616d92c017b0ee0717e8d187,چشمه گیلاس,cheshmeh-gilas-mashhad,"[0, 0]",6140a5085c49bb986631011c,mashhad-city,612b815e2d28e7b40b49ae90,جاذبه‌ی طبیعی,natural_attractions,"[36.610128, 59.337968]",36.610128,59.337968,4.333333333333333,9,"{'1': 0, '2': 1, '3': 0, '4': 3, '5': 5}",120,0,0
616d93914a4586d1761e61d4,پارک طبیعی هفت حوض,haft-howz-park-mashhad,"[0, 0]",6140a5085c49bb986631011c,mashhad-city,612b815e2d28e7b40b49ae90,جاذبه‌ی طبیعی,natural_attractions,"[36.187893, 59.5578212]",36.187893,59.5578212,4.6,10,"{'1': 0, '2': 0, '3': 1, '4': 2, '5': 7}",120,0,0
616d94254a4586d1761e61d5,دریاچه چشمه سبز,cheshmeh-sabz-lake-mashhad,"[0, 0]",6140a5085c49bb986631011c,mashhad-city,612b815e2d28e7b40b49ae90,جاذبه‌ی طبیعی,natural_attractions,"[36.34278, 59.0570068]",36.34278,59.0570068,4.9,10,"{'1': 0, '2': 0, '3': 0, '4': 1, '5': 9}",120,0,0
616d951217b0ee0717e8d188,قله زو,zou-peak-mashhad,"[0, 0]",6140a5085c49bb986631011c,mashhad-city,612b815e2d28e7b40b49ae90,جاذبه‌ی طبیعی,natural_attractions,"[36.2865149, 59.4759826]",36.2865149,59.4759826,4.2,10,"{'1': 0, '2': 0, '3': 2, '4': 4, '5': 4}",120,0,0
616d95f68d016d097431093a,بوستان جنگلی وکیل آباد,vakil-abad-garden-mashhad,"[0, 0]",6140a5085c49bb986631011c,mashhad-city,612b815e2d28e7b40b49ae90,جاذبه‌ی طبیعی,natural_attractions,"[36.3379321, 59.4432664]",36.3379321,59.4432664,4.766666666666667,30,"{'1': 0, '2': 0, '3': 1, '4': 5, '5': 24}",120,0,0
616d96d58d016d097431093b,غار و آبشار دره آل,dareh-al-cave-and-waterfall-mashhad,"[0, 0]",6140a5085c49bb986631011c,mashhad-city,612b815e2d28e7b40b49ae90,جاذبه‌ی طبیعی,natural_attractions,"[26.6541432, 54.9648702]",26.6541432,54.9648702,4.375,8,"{'1': 0, '2': 0, '3': 1, '4': 3, '5': 4}",120,0,0
616d97e017b0ee0717e8d189,برج رادکان,radkan-tower-mashhad,"[0, 0]",6140a5085c49bb986631011c,mashhad-city,612b815e2d28e7b40b49ae8f,جاذبه‌های گردشگری,urban_attractions,"[36.7766092, 59.0308661]",36.7766092,59.0308661,4.666666666666667,9,"{'1': 0, '2': 0, '3': 0, '4': 3, '5': 6}",120,0,0
616d98ee17b0ee0717e8d18a,مسجد جامع گوهرشاد,goharshad-mosque-mashhad,"[0, 0]",6140a5085c49bb986631011c,mashhad-city,612b815e2d28e7b40b49ae8f,جاذبه‌های گردشگری,urban_attractions,"[36.2873373, 59.6150247]",36.2873373,59.6150247,4.846153846153846,13,"{'1': 0, '2': 0, '3': 0, '4': 2, '5': 11}",120,0,0
616d9af18d016d097431093c,باغ گلها,flowers-garden-mashhad,"[540, 1380]",6140a5085c49bb986631011c,mashhad-city,612b815e2d28e7b40b49ae8f,جاذبه‌های گردشگری,urban_attractions,"[36.3420981, 59.4813742]",36.3420981,59.4813742,4.444444444444445,9,"{'1': 0, '2': 0, '3': 1, '4': 3, '5': 5}",120,540,1380
616da16a17b0ee0717e8d18b,گنبد خشتی,gonbad-kheshti-mashhad,"[0, 0]",6140a5085c49bb986631011c,mashhad-city,612b815e2d28e7b40b49ae8f,جاذبه‌های گردشگری,urban_attractions,"[36.2906677, 59.6209832]",36.2906677,59.6209832,4.142857142857143,7,"{'1': 0, '2': 0, '3': 2, '4': 2, '5': 3}",120,0,0
616da27c8d016d097431093d,بوستان پردیس قائم,pardis-ghaem-garden-mashhad,"[0, 0]",6140a5085c49bb986631011c,mashhad-city,612b815e2d28e7b40b49ae8f,جاذبه‌های گردشگری,urban_attractions,"[36.3506988, 59.5606247]",36.3506988,59.5606247,4.142857142857143,7,"{'1': 0, '2': 0, '3': 2, '4': 2, '5': 3}",120,0,0
616da3bb4a4586d1761e61d6,باغ گیاه شناسی,botanical-garden-mashhad,"[480, 1500]",6140a5085c49bb986631011c,mashhad-city,612b815e2d28e7b40b49ae8f,جاذبه‌های گردشگری,urban_attractions,"[36.25385, 59.607317]",36.25385,59.607317,4.0,12,"{'1': 0, '2': 1, '3': 2, '4': 5, '5': 4}",120,480,1500
616da7d917b0ee0717e8d18c,مدرسه عباس قلی خان شاملو,abbas-qoli-khan-seminary-mashhad,"[420, 1080]",6140a5085c49bb986631011c,mashhad-city,612b815e2d28e7b40b49ae8f,جاذبه‌های گردشگری,urban_attractions,"[36.2853367, 59.6181233]",36.2853367,59.6181233,4.0,5,"{'1': 0, '2': 1, '3': 1, '4': 0, '5': 3}",120,420,1080
616da90d4a4586d1761e61d7,خانه تاریخی داروغه,daroogheh-historical-house,"[480, 1140]",6140a5085c49bb986631011c,mashhad-city,612b815e2d28e7b40b49ae8f,جاذبه‌های گردشگری,urban_attractions,"[36.287322, 59.6218338]",36.287322,59.6218338,4.32,25,"{'1': 1, '2': 0, '3': 2, '4': 9, '5': 13}",120,480,1140
616daa774a4586d1761e61d8,برج اخنگان,akhangan-tower-mashhad,"[0, 0]",6140a5085c49bb986631011c,mashhad-city,612b815e2d28e7b40b49ae8f,جاذبه‌های گردشگری,urban_attractions,"[36.5165367, 59.620321]",36.5165367,59.620321,3.888888888888889,9,"{'1': 0, '2': 1, '3': 2, '4': 3, '5': 3}",120,0,0
616dab2917b0ee0717e8d18d,بوستان کوهسنگی,kooh-sangi-park-mashhad,"[540, 1620]",6140a5085c49bb986631011c,mashhad-city,612b815e2d28e7b40b49ae8f,جاذبه‌های گردشگری,urban_attractions,"[36.279679, 59.5594449]",36.279679,59.5594449,4.444444444444445,18,"{'1': 0, '2': 1, '3': 3, '4': 1, '5': 13}",120,540,1620
616dac8a17b0ee0717e8d18e,هتل تاریخی پارس,pars-historic-hotel,"[0, 0]",6140a5085c49bb986631011c,mashhad-city,612b815e2d28e7b40b49ae8f,جاذبه‌های گردشگری,urban_attractions,"[36.288675, 59.6002755]",36.288675,59.6002755,4.8,5,"{'1': 0, '2': 0, '3': 0, '4': 1, '5': 4}",120,0,0
616dadcb4a4586d1761e61d9,حمام مهدی قلی بیک,mehdi-qoli-beik-bath,"[480, 750]",6140a5085c49bb986631011c,mashhad-city,612b815e2d28e7b40b49ae8f,جاذبه‌های گردشگری,urban_attractions,"[36.2877541, 59.6109272]",36.2877541,59.6109272,4.777777777777778,18,"{'1': 0, '2': 0, '3': 0, '4': 4, '5': 14}",120,480,750
616e6d878d016d097431093e,موزه محرم,moharrammuseum-in-tabriz,"[480, 900]",6140a4862dc2260e43ffa306,tabriz-city,612b815e2d28e7b40b49ae8f,جاذبه‌های گردشگری,urban_attractions,"[38.0842591, 46.2910622]",38.0842591,46.2910622,4.75,4,"{'1': 0, '2': 0, '3': 0, '4': 1, '5': 3}",120,480,900
616e6e828d016d097431093f,موزه قاجار (خانه امیرنظام گروسی),qajar-museum-house-of-amir-nezam-garrousi-in-tabriz,"[540, 1080]",6140a4862dc2260e43ffa306,tabriz-city,612b815e2d28e7b40b49ae8f,جاذبه‌های گردشگری,urban_attractions,"[38.0808726, 46.2985725]",38.0808726,46.2985725,4.916666666666667,12,"{'1': 0, '2': 0, '3': 0, '4': 1, '5': 11}",120,540,1080
616e705c4a4586d1761e61da,موزه قرآن و کتابت,quran-va-ketabat-museum-in-tabriz,"[480, 1020]",6140a4862dc2260e43ffa306,tabriz-city,612b815e2d28e7b40b49ae8f,جاذبه‌های گردشگری,urban_attractions,"[38.0840552, 46.2958771]",38.0840552,46.2958771,4.833333333333333,6,"{'1': 0, '2': 0, '3': 0, '4': 1, '5': 5}",120,480,1020
616e715817b0ee0717e8d18f,موزه سنجش,sanjesh-museum-in-tabriz,"[0, 0]",6140a4862dc2260e43ffa306,tabriz-city,612b815e2d28e7b40b49ae8f,جاذبه‌های گردشگری,urban_attractions,"[38.0726173, 46.295051]",38.0726173,46.295051,4.428571428571429,7,"{'1': 0, '2': 0, '3': 1, '4': 2, '5': 4}",120,0,0
616e73474a4586d1761e61db,پارک ائل گلی (شاهگلی),shah-goli-in-tabriz,"[0, 0]",6140a4862dc2260e43ffa306,tabriz-city,612b815e2d28e7b40b49ae90,جاذبه‌ی طبیعی,natural_attractions,"[38.0251982, 46.3636013]",38.0251982,46.3636013,4.925925925925926,27,"{'1': 0, '2': 0, '3': 1, '4': 0, '5': 26}",120,0,0
616e74048d016d0974310940,پارک ملی کنتال,kantal-national-park-in-tabriz,"[0, 0]",6140a4862dc2260e43ffa306,tabriz-city,612b815e2d28e7b40b49ae90,جاذبه‌ی طبیعی,natural_attractions,"[38.8352756, 46.1750225]",38.8352756,46.1750225,4.8,5,"{'1': 0, '2': 0, '3': 0, '4': 1, '5': 4}",120,0,0
616e74fb8d016d0974310941,قبرستان تاریخی پینه شلوار,pine-shalvar-cemetery-in-tabriz,"[0, 0]",6140a4862dc2260e43ffa306,tabriz-city,612b815e2d28e7b40b49ae8f,جاذبه‌های گردشگری,urban_attractions,"[37.9884252, 46.3664471]",37.9884252,46.3664471,5.0,4,"{'1': 0, '2': 0, '3': 0, '4': 0, '5': 4}",120,0,0
616e75674a4586d1761e61dc,روستای لیقوان,liqvan-village,"[0, 0]",6140a4862dc2260e43ffa306,tabriz-city,612b815e2d28e7b40b49ae90,جاذبه‌ی طبیعی,natural_attractions,"[37.837844, 46.44564]",37.837844,46.44564,4.75,8,"{'1': 0, '2': 0, '3': 0, '4': 2, '5': 6}",120,0,0
616e7c2717b0ee0717e8d190,موزه گنجینه,ganjineh-museum-rasht,"[480, 1080]",61409a04f24eeee04882db8c,rasht-city,612b815e2d28e7b40b49ae8f,جاذبه‌های گردشگری,urban_attractions,"[37.277847, 49.5777752]",37.277847,49.5777752,4.0,6,"{'1': 0, '2': 0, '3': 2, '4': 2, '5': 2}",120,480,1080
616e7d8f4a4586d1761e61dd,پارک ملت,mellat-park-rasht,"[0, 0]",61409a04f24eeee04882db8c,rasht-city,612b815e2d28e7b40b49ae8f,جاذبه‌های گردشگری,urban_attractions,"[37.2905222, 49.5959852]",37.2905222,49.5959852,4.625,8,"{'1': 0, '2': 0, '3': 0, '4': 3, '5': 5}",120,0,0
616e7e3f4a4586d1761e61de,پارک توحید,towhid-park,"[0, 0]",61409a04f24eeee04882db8c,rasht-city,612b815e2d28e7b40b49ae8f,جاذبه‌های گردشگری,urban_attractions,"[37.2990914, 49.5854389]",37.2990914,49.5854389,4.857142857142857,7,"{'1': 0, '2': 0, '3': 0, '4': 1, '5': 6}",120,0,0
616e7fd04a4586d1761e61df,محله ساغری سازان,sagharisazan-district_rasht,"[0, 0]",61409a04f24eeee04882db8c,rasht-city,612b815e2d28e7b40b49ae8f,جاذبه‌های گردشگری,urban_attractions,"[37.2830842, 49.5708107]",37.2830842,49.5708107,4.9,10,"{'1': 0, '2': 0, '3': 0, '4': 1, '5': 9}",120,0,0
616e807f17b0ee0717e8d191,آرامگاه استاد ابراهیم پورداود,tomb-of-master-ibrahim-pourdawood-in-rasht,"[0, 0]",61409a04f24eeee04882db8c,rasht-city,612b815e2d28e7b40b49ae8f,جاذبه‌های گردشگری,urban_attractions,"[37.2757243, 49.5818535]",37.2757243,49.5818535,3.25,4,"{'1': 0, '2': 1, '3': 1, '4': 2, '5': 0}",120,0,0
616e983a17b0ee0717e8d192,سبزه میدان,sabzeh-meydan-in-rasht,"[0, 0]",61409a04f24eeee04882db8c,rasht-city,612b815e2d28e7b40b49ae8f,جاذبه‌های گردشگری,urban_attractions,"[37.2765061, 49.5809672]",37.2765061,49.5809672,4.571428571428571,21,"{'1': 0, '2': 0, '3': 3, '4': 3, '5': 15}",120,0,0
616e98d74a4586d1761e61e0,کلیسای مسروپ مقدس,church-of-the holy-mesrop-in-rasht,"[480, 1020]",61409a04f24eeee04882db8c,rasht-city,612b815e2d28e7b40b49ae8f,جاذبه‌های گردشگری,urban_attractions,"[37.2821011, 49.5839762]",37.2821011,49.5839762,4.2,5,"{'1': 0, '2': 1, '3': 0, '4': 1, '5': 3}",120,480,1020
616e9a278d016d0974310942,بقعه متبرکه دانای علی,dana-ali-tomb-in-rasht,"[0, 0]",61409a04f24eeee04882db8c,rasht-city,612b815e2d28e7b40b49ae8f,جاذبه‌های گردشگری,urban_attractions,"[37.2758791, 49.5656822]",37.2758791,49.5656822,4.0,5,"{'1': 0, '2': 1, '3': 0, '4': 2, '5': 2}",120,0,0
616e9d758d016d0974310943,مسجد صفی,safi-mosque-in-rasht,"[750, 870]",61409a04f24eeee04882db8c,rasht-city,612b815e2d28e7b40b49ae8f,جاذبه‌های گردشگری,urban_attractions,"[37.277135, 49.5888593]",37.277135,49.5888593,4.571428571428571,7,"{'1': 0, '2': 0, '3': 1, '4': 1, '5': 5}",120,750,870
616eb24317b0ee0717e8d193,روستای کنارسر,kenarsar-village,"[0, 0]",61409a04f24eeee04882db8c,rasht-city,612b815e2d28e7b40b49ae90,جاذبه‌ی طبیعی,natural_attractions,"[37.3159405, 49.7879575]",37.3159405,49.7879575,3.0,3,"{'1': 0, '2': 0, '3': 3, '4': 0, '5': 0}",120,0,0
616eb4844a4586d1761e61e1,خانه فرهنگ گیلان,gilan-cultural-house-in-rasht,"[600, 780]",61409a04f24eeee04882db8c,rasht-city,612b815e2d28e7b40b49ae8f,جاذبه‌های گردشگری,urban_attractions,"[37.2770321, 49.5996962]",37.2770321,49.5996962,4.857142857142857,7,"{'1': 0, '2': 0, '3': 0, '4': 1, '5': 6}",120,600,780
616eba8317b0ee0717e8d194,رودخانه زرجوب,zarjub-river-in-rasht,"[0, 0]",61409a04f24eeee04882db8c,rasht-city,612b815e2d28e7b40b49ae90,جاذبه‌ی طبیعی,natural_attractions,"[37.2872422, 49.5572873]",37.2872422,49.5572873,1.25,4,"{'1': 3, '2': 1, '3': 0, '4': 0, '5': 0}",120,0,0
616ebba98d016d0974310944,خانه قدیری,ghadiri-house-in-rasht,"[540, 1020]",61409a04f24eeee04882db8c,rasht-city,612b815e2d28e7b40b49ae8f,جاذبه‌های گردشگری,urban_attractions,"[37.2765246, 49.5789343]",37.2765246,49.5789343,4.666666666666667,6,"{'1': 0, '2': 0, '3': 0, '4': 2, '5': 4}",120,540,1020
616eccfe17b0ee0717e8d195,موزه بزرگ خراسان رضوی,khorasan-razavi-great-museum,"[480, 1020]",6140a5085c49bb986631011c,mashhad-city,612b815e2d28e7b40b49ae8f,جاذبه‌های گردشگری,urban_attractions,"[36.2813623, 59.5573582]",36.2813623,59.5573582,4.0,6,"{'1': 0, '2': 0, '3': 3, '4': 0, '5': 3}",120,480,1020
616ecdf617b0ee0717e8d196,آرامگاه نادرشاه افشار,tomb-of-nader-shah,"[540, 1020]",6140a5085c49bb986631011c,mashhad-city,612b815e2d28e7b40b49ae8f,جاذبه‌های گردشگری,urban_attractions,"[36.2947356, 59.6105411]",36.2947356,59.6105411,4.785714285714286,14,"{'1': 0, '2': 0, '3': 0, '4': 3, '5': 11}",120,540,1020
616ecf6e8d016d0974310945,گنبد هارونیه,haruniyeh-dome-mashhad,"[480, 1080]",6140a5085c49bb986631011c,mashhad-city,612b815e2d28e7b40b49ae8f,جاذبه‌های گردشگری,urban_attractions,"[36.4800183, 59.5070553]",36.4800183,59.5070553,4.615384615384615,13,"{'1': 0, '2': 0, '3': 0, '4': 5, '5': 8}",120,480,1080
616ed0568d016d0974310946,حرم امام رضا,imam-reza-holy-shrine-mashhad,"[0, 0]",6140a5085c49bb986631011c,mashhad-city,612b815e2d28e7b40b49ae8f,جاذبه‌های گردشگری,urban_attractions,"[36.289575, 59.6147723]",36.289575,59.6147723,4.9,60,"{'1': 1, '2': 0, '3': 0, '4': 2, '5': 57}",120,0,0
616ed36d8d016d0974310947,مرکز خرید ستاره امید,setareh-omid-shopping-center-tabtiz,"[630, 1340]",6140a4862dc2260e43ffa306,tabriz-city,612b815e2d28e7b40b49aeb4,بازار و خرید,shopping,"[38.0302187, 46.3600281]",38.0302187,46.3600281,4.2,10,"{'1': 1, '2': 0, '3': 1, '4': 2, '5': 6}",180,630,1340
616ed54917b0ee0717e8d197,بوستان مینیاتوری,miniature-park-mashhad,"[480, 1350]",6140a5085c49bb986631011c,mashhad-city,612b815e2d28e7b40b49ae8f,جاذبه‌های گردشگری,urban_attractions,"[36.376532, 59.4784328]",36.376532,59.4784328,4.857142857142857,7,"{'1': 0, '2': 0, '3': 0, '4': 1, '5': 6}",120,480,1350
616ed5f34a4586d1761e61e2,هتل اوستا,"avesta-hotel-,mashhad","[0, 0]",6140a5085c49bb986631011c,mashhad-city,612b815e2d28e7b40b49aeb8,هتل,Hotel,"[36.2892581, 59.6187118]",36.2892581,59.6187118,3.75,4,"{'1': 0, '2': 0, '3': 2, '4': 1, '5': 1}",180,0,0
616ed6ae17b0ee0717e8d198,هتل جمالی,jamali-hotel-mashhad,"[0, 0]",6140a5085c49bb986631011c,mashhad-city,612b815e2d28e7b40b49aeb8,هتل,Hotel,"[36.2806572, 59.6142884]",36.2806572,59.6142884,2.3636363636363638,22,"{'1': 12, '2': 2, '3': 2, '4': 0, '5': 6}",180,0,0
616ed87d8d016d0974310948,هتل پرنده سفید,parandeh-sefid-hotel-mashhad,"[0, 0]",6140a5085c49bb986631011c,mashhad-city,612b815e2d28e7b40b49aeb8,هتل,Hotel,"[36.2849855, 59.6057701]",36.2849855,59.6057701,4.333333333333333,3,"{'1': 0, '2': 0, '3': 1, '4': 0, '5': 2}",180,0,0
616edb2717b0ee0717e8d199,روستای قلات,ghalat-village-shiraz,"[0, 0]",6140a4bd2dc2260e43ffa307,shiraz-city,612b815e2d28e7b40b49ae90,جاذبه‌ی طبیعی,natural_attractions,"[29.8332518, 52.3666613]",29.8332518,52.3666613,4.8076923076923075,26,"{'1': 0, '2': 0, '3': 1, '4': 3, '5': 22}",120,0,0
616edf0217b0ee0717e8d19b,روستای جیرسرباقرخاله,jirsar-baqerkhaleh-ecolodge,"[0, 0]",61409a04f24eeee04882db8c,rasht-city,612b815e2d28e7b40b49ae90,جاذبه‌ی طبیعی,natural_attractions,"[37.3676426, 49.5809633]",37.3676426,49.5809633,4.454545454545454,11,"{'1': 0, '2': 0, '3': 2, '4': 2, '5': 7}",120,0,0
616edfdb17b0ee0717e8d19c,میدان شهرداری,shahrdari-square-in-rasht,"[0, 0]",61409a04f24eeee04882db8c,rasht-city,612b815e2d28e7b40b49ae8f,جاذبه‌های گردشگری,urban_attractions,"[37.2792471, 49.5848957]",37.2792471,49.5848957,4.875,32,"{'1': 0, '2': 0, '3': 1, '4': 2, '5': 29}",120,0,0
